[{"id":"0x3e2f03113cab44a7:0xe090502c826fbbc0","status":"stable","name":"CAN","category":"قهوة","type":"Cafe","district":"As Sulimaniyah","location":"3179 Prince Muhammad Ibn Abd Al Aziz, As Sulimaniyah, Riyadh 12223","phone":"0112352474","rate":4.1,"reviews":1444,"lat":24.7011042,"lng":46.695609399999995,"mapUrl":null,"owner":null,"matchedRule":"google_type:cafe","businessStatus":null,"photoCount":null},{"id":"0x3e2f03e97a20fb33:0xa517fdfd2bab329c","status":"stable","name":"علو","category":"قهوة","type":"Coffee shop","district":"الورود","location":"2513 Al Ulaya, حي الورود, RHWA6755, 6755, Riyadh 12251","phone":null,"rate":4.5,"reviews":312,"lat":24.7202582,"lng":46.672072899999996,"mapUrl":null,"owner":null,"matchedRule":"google_type:coffee shop","businessStatus":null,"photoCount":null},{"id":"0x3e2f1d53bb6a49bf:0x4bd94025c96364c9","status":"stable","name":"less","category":"قهوة","type":"Coffee shop","district":"المحمدية","location":"Al Takhassousi, حي المحمدية, Riyadh 12363","phone":null,"rate":3.9,"reviews":342,"lat":24.7340859,"lng":46.648852299999994,"mapUrl":null,"owner":null,"matchedRule":"google_type:coffee shop","businessStatus":null,"photoCount":null},{"id":"0x3e2ee3000159633f:0x32842067f3dbfc22","status":"stable","name":"signature","category":"بيكري","type":"Bakery","district":"Al Ghadir","location":"QM97+82G, Al Ghadir, Riyadh 13311","phone":null,"rate":5.0,"reviews":1,"lat":24.7683034,"lng":46.6625874,"mapUrl":null,"owner":null,"matchedRule":"google_type:bakery","businessStatus":null,"photoCount":null},{"id":"0x3e2ee3e3ee681911:0xfc09ac904c963753","status":"stable","name":"ion","category":"قهوة","type":"Coffee shop","district":"Al Ghadir","location":"QMC3+WCV, Al Ghadir, Riyadh 13311","phone":"0501400097","rate":4.3,"reviews":47,"lat":24.772312499999998,"lng":46.6535625,"mapUrl":null,"owner":null,"matchedRule":"google_type:coffee shop","businessStatus":null,"photoCount":null},{"id":"0x3e2efd10dc160221:0x645a226d371c1830","status":"stable","name":"BAC","category":"بيكري","type":"Coffee shop","district":"Qurtubah","location":"2686 الاعشى بن قيس، حي قرطبة، 7600, Riyadh 13244","phone":null,"rate":3.0,"reviews":1,"lat":24.807040699999998,"lng":46.7208423,"mapUrl":null,"owner":null,"matchedRule":"brand:bac","businessStatus":null,"photoCount":null},{"id":"0x3e2ee504030104e5:0xd7f33828991ade5a","status":"stable","name":"Make","category":"قهوة","type":"Coffee shop","district":"ابحر","location":"ابحر, Al Malqa, Riyadh 13525","phone":null,"rate":4.6,"reviews":130,"lat":24.8143557,"lng":46.5951191,"mapUrl":null,"owner":null,"matchedRule":"google_type:coffee shop","businessStatus":null,"photoCount":null},{"id":"0x3e2f199fc3fd8fa5:0x6a94337dfd19163a","status":"stable","name":"Baskin Robbins","category":"حلا","type":"Ice cream shop","district":"Tuwaiq","location":"HG9V+5H8, Sulayman Ibn Abdulmalik Ibn Marwan, Tuwaiq, Riyadh 14928","phone":null,"rate":2.8,"reviews":4,"lat":24.567914599999998,"lng":46.543946899999995,"mapUrl":null,"owner":null,"matchedRule":"brand:baskin_robbins","businessStatus":null,"photoCount":null},{"id":"0x3e2f11f863771e9d:0x5344c603b4a6b2ac","status":"stable","name":"ALHatab Bakery","category":"بيكري","type":"Bakery","district":"غير محدد","location":"3560 Western Ring Branch Rd، opposite the Honda Agency 6903, Riyadh 12993","phone":"920002281","rate":4.2,"reviews":1283,"lat":24.568413099999997,"lng":46.6207516,"mapUrl":null,"owner":null,"matchedRule":"brand:al_hatab","businessStatus":null,"photoCount":null},{"id":"0x3e2f1117e374f3c3:0x801993c76f4e5e76","status":"stable","name":"مامولا","category":"حلا","type":"Confectionery store","district":"Western Ring Rd","location":"Western Ring Rd, ،، Riyadh 12993","phone":"0551710382","rate":4.4,"reviews":465,"lat":24.5668653,"lng":46.6238519,"mapUrl":null,"owner":null,"matchedRule":"brand:mamola","businessStatus":null,"photoCount":null},{"id":"0x3e2f11a660c06e97:0x69f47c9013d36dee","status":"stable","name":"Top100","category":"حلا","type":"Candy store","district":"Western Ring Branch Rd","location":"Western Ring Branch Rd, As Suwaidi Al Gharabi, Riyadh 12992","phone":"0552121941","rate":4.1,"reviews":374,"lat":24.5665139,"lng":46.624652399999995,"mapUrl":null,"owner":null,"matchedRule":"brand:top100","businessStatus":null,"photoCount":null},{"id":"0x3e2f1015164c2337:0x7064ac38feadaae0","status":"stable","name":"Baskin Robbins","category":"حلا","type":"Ice cream shop","district":"Southern Ring Branch Rd","location":"HM83+H2C, Southern Ring Branch Rd, Shubra, Riyadh 12989","phone":"920013120","rate":3.9,"reviews":291,"lat":24.5664451,"lng":46.6525135,"mapUrl":null,"owner":null,"matchedRule":"brand:baskin_robbins","businessStatus":null,"photoCount":null},{"id":"0x3e2f10153d872bed:0x5a12924f8ee85f6b","status":"stable","name":"Sweets and Bakeries Kingdom","category":"بيكري","type":"Dessert shop","district":"Shubra","location":"4050 Southern Ring Branch Rd, Shubra, Riyadh 12989","phone":"0549101626","rate":3.6,"reviews":63,"lat":24.566333,"lng":46.6523794,"mapUrl":null,"owner":null,"matchedRule":"keyword:bakery","businessStatus":null,"photoCount":null},{"id":"0x3e2f10192f612e8b:0xf66ee6b973e3da44","status":"stable","name":"أسواق ومخابز اصل الرجبة","category":"بيكري","type":"Grocery store","district":"Shubra","location":"Shubra, Riyadh 12799","phone":"0503993529","rate":4.1,"reviews":176,"lat":24.5720675,"lng":46.6651198,"mapUrl":null,"owner":null,"matchedRule":"keyword:bakery","businessStatus":null,"photoCount":null},{"id":"0x3e2f0fb127ac7bd7:0x6003a357c8b3d089","status":"stable","name":"حلويات الركن العربي","category":"حلا","type":"Bakery","district":"Ash Shifa","location":"7846 Al Muthanna Ibn Harisa, Ash Shifa, Riyadh 14713","phone":"0503053934","rate":3.9,"reviews":94,"lat":24.5679259,"lng":46.695450699999995,"mapUrl":null,"owner":null,"matchedRule":"keyword:dessert","businessStatus":null,"photoCount":null},{"id":"0x3e2f0e55a54e28fb:0x169d650f8afd1fcf","status":"stable","name":"أسواق بيت الوناسة","category":"حلا","type":"Candy store","district":"Ash Shifa","location":"7858 Al Tourmouzi, Ash Shifa, Riyadh 14713","phone":"0556245355","rate":4.0,"reviews":4680,"lat":24.568040999999997,"lng":46.701635499999995,"mapUrl":null,"owner":null,"matchedRule":"google_type:candy store","businessStatus":null,"photoCount":null},{"id":"0x3e2f09f115883b5b:0x7e5bee6101bc22c8","status":"stable","name":"تموينات شركة اسواق و مخابز طيف الجوهرة","category":"بيكري","type":"Supermarket","district":"العزيزية","location":"RMAA6628، 3640 Wadi Jizan، حي العزيزية، 6628, Riyadh 14515, Riyadh 14522","phone":"0557879686","rate":4.3,"reviews":11,"lat":24.5669641,"lng":46.762480599999996,"mapUrl":null,"owner":null,"matchedRule":"keyword:bakery","businessStatus":null,"photoCount":null},{"id":"0x3e2f099cc65a9b6b:0x793dfb7b78402a63","status":"stable","name":"حلويات ميني كيك الدار البيضاء","category":"حلا","type":"Candy store","district":"Ad Dar Al Baida","location":"HQ8R+M2R, Ad Dar Al Baida, Riyadh 14517","phone":"0552244238","rate":4.0,"reviews":228,"lat":24.5667449,"lng":46.790016,"mapUrl":null,"owner":null,"matchedRule":"keyword:dessert","businessStatus":null,"photoCount":null},{"id":"0x3e2f1a78ab90a8a3:0x967097e204d47dc6","status":"stable","name":"Badi' Az Zaman Bakery and Sweet","category":"بيكري","type":"Bakery","district":"As Suwaidi Al Gharabi","location":"شارع الشيخ صالح بن عبد العزيز, As Suwaidi Al Gharabi, Riyadh 11218","phone":"0502121913","rate":3.8,"reviews":286,"lat":24.5748529,"lng":46.626774999999995,"mapUrl":null,"owner":null,"matchedRule":"keyword:bakery","businessStatus":null,"photoCount":null},{"id":"0x3e2f0fbb5fed5aaf:0x4bc2109423583252","status":"stable","name":"قرصان الضيافة الفرع 2. ركن ديرتي سابقأً","category":"بيكري","type":"Bakery","district":"Ash Shifa","location":"2231-2251 Dirab Branch Rd, Ash Shifa, Riyadh 14712","phone":"0545390170","rate":4.0,"reviews":103,"lat":24.5763149,"lng":46.698455499999994,"mapUrl":null,"owner":null,"matchedRule":"brand:qursan","businessStatus":null,"photoCount":null},{"id":"0x3e2f09efbae601eb:0x46b65b1dea2a35e1","status":"stable","name":"أسواق ومخابز ينابيع المستهلك Markets and Bakeries Consumer Spring","category":"بيكري","type":"Supermarket","district":"غير محدد","location":"طريق العزيزية،, Riyadh","phone":null,"rate":4.4,"reviews":45,"lat":24.572739,"lng":46.785813399999995,"mapUrl":null,"owner":null,"matchedRule":"keyword:bakery","businessStatus":null,"photoCount":null},{"id":"0x3e2fa755d32978ed:0xa5be175d1f047f0f","status":"stable","name":"مخابز ركن الرده حلويات","category":"بيكري","type":"Bakery","district":"السمح بن مالك","location":"السمح بن مالك ، حي مجمع الاسكان - طريق الخرج إسكان رقم 1, Riyadh","phone":"0114993111","rate":3.5,"reviews":2,"lat":24.5742302,"lng":46.827684999999995,"mapUrl":null,"owner":null,"matchedRule":"keyword:bakery","businessStatus":null,"photoCount":null},{"id":"0x3e2f18514845562d:0x6790517b3ff0c6c8","status":"stable","name":"معمل نورمان للحلويات","category":"حلا","type":"Bakery","district":"Tuwaiq","location":"Tuwaiq، شارع بلال بن رباح، حي, Riyadh","phone":"0509070336","rate":4.5,"reviews":11,"lat":24.5796255,"lng":46.5488751,"mapUrl":null,"owner":null,"matchedRule":"keyword:dessert","businessStatus":null,"photoCount":null},{"id":"0x3e2f198d4cd7821d:0x2fe70dbaf9a62095","status":"stable","name":"باسكن روبنز","category":"حلا","type":"Ice cream shop","district":"Tuwaiq","location":"2889 Bilal Ibn Rabah, Tuwaiq, Riyadh 14921 6565 Bilal Ibn Rabah, 6565, Tuwaiq, Riyadh 14921","phone":"0114035739","rate":3.6,"reviews":97,"lat":24.5787782,"lng":46.584174999999995,"mapUrl":null,"owner":null,"matchedRule":"brand:baskin_robbins","businessStatus":null,"photoCount":null},{"id":"0x3e2f1a7fa083da7b:0xca1c08c5af9961c1","status":"stable","name":"Almamlaka Sweets","category":"حلا","type":"Dessert shop","district":"As Suwaidi Al Gharabi","location":"Ash Shaikh Salih Ibn Abdul Aziz Ibn Abdul Rahman, As Suwaidi Al Gharabi, Riyadh 12991","phone":"0549101628","rate":3.8,"reviews":95,"lat":24.576818499999998,"lng":46.629186999999995,"mapUrl":null,"owner":null,"matchedRule":"keyword:dessert","businessStatus":null,"photoCount":null},{"id":"0x3e2f11da6c5a6acb:0xdc336162fa1408fc","status":"stable","name":"مخبز","category":"بيكري","type":"Bakery","district":"الزهرة","location":"7727 لبيد بن ربيعة، الزهرة، الرياض 12984 2915،","phone":null,"rate":4.3,"reviews":39,"lat":24.576740899999997,"lng":46.6391948,"mapUrl":null,"owner":null,"matchedRule":"keyword:bakery","businessStatus":null,"photoCount":null},{"id":"0x3e2f092b11e36327:0x1ec44b625e99d3b7","status":"stable","name":"باسكن روبنز","category":"حلا","type":"Ice cream shop","district":"Al Aziziyah","location":"7707 Al Hair Rd, 2308, Al Aziziyah, 2308، Riyadh 14515","phone":null,"rate":3.9,"reviews":69,"lat":24.577042,"lng":46.7496807,"mapUrl":null,"owner":null,"matchedRule":"brand:baskin_robbins","businessStatus":null,"photoCount":null},{"id":"0x3e2f09cafdffbad1:0xe85848b8d9b3ed18","status":"stable","name":"حلويات بيوت الوناسة.العزيزيه","category":"حلا","type":"Store","district":"Ad Dar Al Baida","location":"8445 طريق فتح مكة, Ad Dar Al Baida، 2707, Riyadh 14517","phone":"0590664914","rate":3.7,"reviews":19,"lat":24.577601299999998,"lng":46.792245699999995,"mapUrl":null,"owner":null,"matchedRule":"keyword:dessert","businessStatus":null,"photoCount":null},{"id":"0x3e2f192bce45a569:0xd1e3d45867fb2f01","status":"stable","name":"بوفية كدادين","category":"حلا","type":"Ice cream shop","district":"Tuwaiq","location":"2776 6883 Bilal Ibn Rabah, Tuwaiq, Riyadh 14923","phone":"0572099337","rate":5.0,"reviews":3,"lat":24.5811313,"lng":46.5374027,"mapUrl":null,"owner":null,"matchedRule":"google_type:ice cream shop","businessStatus":null,"photoCount":null},{"id":"0x3e2f1befee782db7:0xb3e5e293d4f8d981","status":"stable","name":"أسواق ومخابز كود الاغذية","category":"بيكري","type":"Supermarket","district":"غير محدد","location":"RIUB6489, 2790 Ibn Al Qourtoubi, 6489، Riyadh 12978","phone":"0539585278","rate":4.2,"reviews":25,"lat":24.5811372,"lng":46.602664999999995,"mapUrl":null,"owner":null,"matchedRule":"keyword:bakery","businessStatus":null,"photoCount":null},{"id":"0x3e2f10065e2e42f9:0xa1772177c394b0d4","status":"stable","name":"باسكن روبنز","category":"حلا","type":"Ice cream shop","district":"As Suwaidi","location":"2509 Al Souweidi Al Aam, As Suwaidi, Riyadh 12795","phone":"0114035929","rate":3.9,"reviews":118,"lat":24.5841511,"lng":46.6631092,"mapUrl":null,"owner":null,"matchedRule":"brand:baskin_robbins","businessStatus":null,"photoCount":null},{"id":"0x3e2f0ffb1f6ca2c7:0xd57048db512bce44","status":"stable","name":"Saud Sweets","category":"حلا","type":"Candy store","district":"Shubra","location":"شارع العباد, Shubra, Riyadh 12793","phone":"0507522285","rate":4.0,"reviews":163,"lat":24.5849759,"lng":46.677837,"mapUrl":null,"owner":null,"matchedRule":"keyword:dessert","businessStatus":null,"photoCount":null},{"id":"0x3e2f0fec527f3a97:0x862a37f3e5dc289c","status":"stable","name":"قرصان المسعود","category":"بيكري","type":"Bakery","district":"شبرا","location":"HMMP+WG6، شارع الشيخ محمد بن عبداللطيف بن عبدالرحمن، حي شبرا, Ad Duraihimiyah, Riyadh 12797","phone":"0509992463","rate":4.3,"reviews":22,"lat":24.584785099999998,"lng":46.6862561,"mapUrl":null,"owner":null,"matchedRule":"brand:qursan","businessStatus":null,"photoCount":null},{"id":"0x3e2f0980d39b59e7:0xed8e05a47b72a245","status":"stable","name":"ايسكريم شيخة","category":"حلا","type":"Ice cream shop","district":"Al Aziziyah","location":"4815 Soufian Ibn Aouf, Al Aziziyah، 8461, Riyadh 14514","phone":null,"rate":4.7,"reviews":3,"lat":24.5839242,"lng":46.7742149,"mapUrl":null,"owner":null,"matchedRule":"google_type:ice cream shop","businessStatus":null,"photoCount":null},{"id":"0x3e2f0908b3f3a329:0xde3899517b0e6d3c","status":"stable","name":"أسواق ومخابز الهزاز","category":"بيكري","type":"Supermarket","district":"العزيزية","location":"RMAA6725, 6725 Al Aziziah Rd, 2743، حي العزيزية، Riyadh 14513","phone":"0500940350","rate":3.5,"reviews":820,"lat":24.5813651,"lng":46.7820809,"mapUrl":null,"owner":null,"matchedRule":"keyword:bakery","businessStatus":null,"photoCount":null},{"id":"0x3e2f1a663e51b389:0x613e9f7d4165dd23","status":"stable","name":"Baskin Robbins","category":"حلا","type":"Ice cream shop","district":"Aluraija Al Gharbiyah","location":"HJQF+J83, Hamzah Ibn Abd Al Mouttaleb, Aluraija Al Gharbiyah, Riyadh 12976","phone":"0114035739","rate":3.8,"reviews":205,"lat":24.5890123,"lng":46.6233004,"mapUrl":null,"owner":null,"matchedRule":"brand:baskin_robbins","businessStatus":null,"photoCount":null},{"id":"0x3e2f1b6a0701a2d3:0x6b3099427feeffc2","status":"stable","name":"بستاني للشوكلا","category":"شوكولاتة","type":"Chocolate shop","district":"الزهرة","location":"8832 عائشة بنت أبي بكر، الزهرة، الرياض 12983 4342 الرياض 12983, Riyadh 12983","phone":"0531383153","rate":4.3,"reviews":277,"lat":24.586687299999998,"lng":46.6533988,"mapUrl":null,"owner":null,"matchedRule":"google_type:chocolate shop","businessStatus":null,"photoCount":null},{"id":"0x3e2f1aa0bb747dc1:0x54a959988d47c247","status":"stable","name":"كنافة أصيل النابلسية","category":"حلا","type":"Candy store","district":"As Suwaidi","location":"6473 Aishah Bint Abi Bakr, As Suwaidi, Riyadh 12788","phone":"0552122304","rate":4.4,"reviews":1049,"lat":24.585381599999998,"lng":46.6553001,"mapUrl":null,"owner":null,"matchedRule":"brand:kunafat_aseel","businessStatus":null,"photoCount":null},{"id":"0x3e2fa7457c8434cf:0x7e04bddec89eab7e","status":"stable","name":"شاهي الكيف","category":"شاهي","type":"Coffee shop","district":"Ad Difa","location":"Ad Difa، 2786، 7725, Riyadh 14318","phone":null,"rate":5.0,"reviews":3,"lat":24.5894394,"lng":46.8436093,"mapUrl":null,"owner":null,"matchedRule":"keyword:tea","businessStatus":null,"photoCount":null},{"id":"0x3e2f1b3608f34e8f:0x7d673d477dbf5007","status":"stable","name":"LUH LUH AL DOOQ SWEET","category":"حلا","type":"Bakery","district":"Aluraija Al Gharbiyah","location":"7791 Al Amir Musaid Ibn Abdul Rahman Ibn Faisal Rd, Aluraija Al Gharbiyah, حي, 3842, Riyadh 12975","phone":"0576629309","rate":4.7,"reviews":10,"lat":24.5929362,"lng":46.6133739,"mapUrl":null,"owner":null,"matchedRule":"keyword:dessert","businessStatus":null,"photoCount":null},{"id":"0x3e2f1b0018fd18b1:0xb96068304ab410ba","status":"stable","name":"قرصان","category":"بيكري","type":"Bakery","district":"Al Balad Al Amin","location":"HMR6+5V6, Al Balad Al Amin, As Suwaidi, Riyadh 12788","phone":null,"rate":5.0,"reviews":1,"lat":24.5904147,"lng":46.662138399999996,"mapUrl":null,"owner":null,"matchedRule":"brand:qursan","businessStatus":null,"photoCount":null},{"id":"0x3e2f0f7940235711:0xe86c88d2aaf07b53","status":"stable","name":"شاي ابو لهب","category":"شاهي","type":"Cafe","district":"As Suwaidi","location":"HMRF+534, As Suwaidi, Riyadh 12786","phone":"0540804852","rate":3.7,"reviews":3,"lat":24.5903971,"lng":46.672695,"mapUrl":null,"owner":null,"matchedRule":"keyword:tea","businessStatus":null,"photoCount":null},{"id":"0x3e2f0fdce776c345:0x13e3ab809ccfc685","status":"stable","name":"مخابز وتموينات سلة الحجاز","category":"بيكري","type":"Supermarket","district":"Utaiqah","location":"2876 Prince Abdullah Ibn Abdulrahman Ibn Faisal, Utaiqah, 6570، Riyadh 12673","phone":"0559127298","rate":4.4,"reviews":8,"lat":24.590469,"lng":46.711649,"mapUrl":null,"owner":null,"matchedRule":"keyword:bakery","businessStatus":null,"photoCount":null},{"id":"0x3e2f0f770b2633ed:0x2d10ca0fdd20add4","status":"stable","name":"حلويات المملكة","category":"حلا","type":"Dessert shop","district":"غير محدد","location":"الأمير عبد الله بن عبد الرحمن بن فيصل،, Riyadh","phone":"0549101621","rate":4.0,"reviews":55,"lat":24.5941002,"lng":46.7117696,"mapUrl":null,"owner":null,"matchedRule":"brand:halawiyat_mamlaka","businessStatus":null,"photoCount":null},{"id":"0x3e2f09a714f81385:0xf4a788be917bc768","status":"stable","name":"ثلاجة شريف باكرمان للتجاره مستلزمات حلويات و مخابز مواد غذائية","category":"بيكري","type":"Tea store","district":"غير محدد","location":"HQV3+R7W، العزيزية Unnamed Road, Riyadh 14512","phone":null,"rate":4.4,"reviews":34,"lat":24.594614,"lng":46.753198999999995,"mapUrl":null,"owner":null,"matchedRule":"keyword:bakery","businessStatus":null,"photoCount":null},{"id":"0x3e2f08da50587e9b:0x84d4c04c53533113","status":"stable","name":"Baskin Robbins","category":"حلا","type":"Ice cream shop","district":"Al Shabab","location":"HQR5+6QF, Al Shabab, Al Aziziyah, Riyadh 14511","phone":"920013120","rate":4.1,"reviews":357,"lat":24.590565299999998,"lng":46.7594223,"mapUrl":null,"owner":null,"matchedRule":"brand:baskin_robbins","businessStatus":null,"photoCount":null},{"id":"0x3e2f08e2a56070af:0x77d10c89515bea9d","status":"stable","name":"Baskin Robbins","category":"حلا","type":"Ice cream shop","district":"Al Aziziyah","location":"4923 Suwaid Ibn Ali, Al Aziziyah, Riyadh 14514","phone":null,"rate":4.0,"reviews":502,"lat":24.5903589,"lng":46.7761954,"mapUrl":null,"owner":null,"matchedRule":"brand:baskin_robbins","businessStatus":null,"photoCount":null},{"id":"0x3e2f1ba49cc4a605:0x73abb30aab835daf","status":"stable","name":"اسواق و مخابز تفانين المستهلك","category":"بيكري","type":"Supermarket","district":"Aishah Bint Abi Bakr","location":"Aishah Bint Abi Bakr, طريق معاوية بن ابي سفيان, Riyadh 12784","phone":"0506547799","rate":4.1,"reviews":225,"lat":24.598331899999998,"lng":46.6461964,"mapUrl":null,"owner":null,"matchedRule":"keyword:bakery","businessStatus":null,"photoCount":null},{"id":"0x3e2f0f88e728b903:0x88cd04e017e9dff","status":"stable","name":"Baskin' Robbins","category":"حلا","type":"Ice cream shop","district":"Sultanah","location":"HMWW+HWC, Sultanah, Ad Duraihimiyah, Riyadh 12791","phone":"0114035792","rate":4.0,"reviews":203,"lat":24.5964362,"lng":46.697267,"mapUrl":null,"owner":null,"matchedRule":"brand:baskin_robbins","businessStatus":null,"photoCount":null},{"id":"0x3e2f090058f94c09:0xe4d86606d5fdb1ea","status":"stable","name":"مخبز","category":"بيكري","type":"Bakery","district":"المناخ","location":"حي المناخ، RNCB3613، 3613 ممر83، 7197, Riyadh 14313","phone":null,"rate":5.0,"reviews":1,"lat":24.598271699999998,"lng":46.8021223,"mapUrl":null,"owner":null,"matchedRule":"keyword:bakery","businessStatus":null,"photoCount":null},{"id":"0x3e2f1bb502aedf83:0x6714ba4d6d904d8e","status":"stable","name":"أسواق ومخابز أركان الغذاء للتجارة","category":"بيكري","type":"Supermarket","district":"Aluraija Al Gharbiyah","location":"3809 Abdallah Ibn Al Zoubeir, Aluraija Al Gharbiyah, حي 7007, Riyadh 12966","phone":null,"rate":4.1,"reviews":99,"lat":24.6002092,"lng":46.6008504,"mapUrl":null,"owner":null,"matchedRule":"keyword:bakery","businessStatus":null,"photoCount":null},{"id":"0x3e2f1baaef333341:0x115eb3cb58fbc2b0","status":"stable","name":"بوفية شطيرة وشاي","category":"شاهي","type":"Buffet restaurant","district":"Al Uraija Al Wusta","location":"2071 حي, Al Uraija Al Wusta، RIUA7351، 7351 حمزة بن عبدالمطلب, Riyadh 12973","phone":"0532036136","rate":4.4,"reviews":29,"lat":24.600807399999997,"lng":46.6156193,"mapUrl":null,"owner":null,"matchedRule":"keyword:tea","businessStatus":null,"photoCount":null},{"id":"0x3e2f0f8089e4c663:0x25619ae500b040ce","status":"stable","name":"Bazuhair Candy Store Nuts and More","category":"حلا","type":"Candy store","district":"Utaiqah","location":"طريق الملك فهد الفرعي, Utaiqah, Riyadh 12671","phone":"0561110949","rate":4.1,"reviews":87,"lat":24.6028274,"lng":46.7070235,"mapUrl":null,"owner":null,"matchedRule":"keyword:dessert","businessStatus":null,"photoCount":null},{"id":"0x3e2f1be82dc47347:0x46b48d83df168f04","status":"stable","name":"عذيّة","category":"قهوة","type":"Coffee shop","district":"Dhahrat Al Badi'ah","location":"3353 8634 Muawiyah Ibn Abi Sufyan Road, Dhahrat Al Badi'ah, Riyadh 12782","phone":null,"rate":4.4,"reviews":325,"lat":24.6052501,"lng":46.6574032,"mapUrl":null,"owner":null,"matchedRule":"google_type:coffee shop","businessStatus":null,"photoCount":null},{"id":"0x3e2f1b17e15f815d:0x240182dd88a5d030","status":"stable","name":"كوفى عذبه","category":"قهوة","type":"Coffee shop","district":"غير محدد","location":"8648 حي، RBBD3373، 3373 معاوية بن ابي سفيان, Riyadh 12782","phone":null,"rate":3.8,"reviews":47,"lat":24.605267899999998,"lng":46.6574197,"mapUrl":null,"owner":null,"matchedRule":"google_type:coffee shop","businessStatus":null,"photoCount":null},{"id":"0x3e2f0f5cf4a4f651:0x5ceda1375f23eec9","status":"stable","name":"Baskin Robbins","category":"حلا","type":"Ice cream shop","district":"Al Bathaa","location":"JP3J+WVG, Al Bathaa, Al Mansourah, Riyadh 12684","phone":null,"rate":3.9,"reviews":82,"lat":24.60481,"lng":46.7322178,"mapUrl":null,"owner":null,"matchedRule":"brand:baskin_robbins","businessStatus":null,"photoCount":null},{"id":"0x3e2f1b6a501da791:0x927bd984145baba5","status":"stable","name":"اسواق ومخابز زهرة الانوار","category":"بيكري","type":"Supermarket","district":"العريجاء الوسطى","location":"6959،، 4617 الدمنهوري، العريجاء الوسطى، الرياض 12951, Riyadh 12211","phone":"0535458731","rate":4.0,"reviews":128,"lat":24.609591899999998,"lng":46.628207499999995,"mapUrl":null,"owner":null,"matchedRule":"keyword:bakery","businessStatus":null,"photoCount":null},{"id":"0x3e2f05817dc9ff8b:0x789ff9bf03ac7044","status":"stable","name":"مخابزوحلويات الوفاء","category":"بيكري","type":"Dessert shop","district":"ممر الرفادة","location":"JP56+XQM, ممر الرفادة، حي, Manfouhah Al Jadidah, Riyadh 12653","phone":"0550633080","rate":4.1,"reviews":233,"lat":24.6099502,"lng":46.711906299999995,"mapUrl":null,"owner":null,"matchedRule":"keyword:bakery","businessStatus":null,"photoCount":null},{"id":"0x3e2f0f5774ca898d:0x41ab8adcd08ea314","status":"stable","name":"Salem Sweets","category":"حلا","type":"Discount supermarket","district":"Al Farazdaq St","location":"Al Farazdaq St, Al Mansourah, Riyadh 12682","phone":"0569311013","rate":4.3,"reviews":1427,"lat":24.6106725,"lng":46.7407366,"mapUrl":null,"owner":null,"matchedRule":"keyword:dessert","businessStatus":null,"photoCount":null},{"id":"0x3e2f097d943f6695:0x50b773817aa015fd","status":"stable","name":"Al Mansouri Icecream Wholsale","category":"حلا","type":"Ice cream shop","district":"Al Mansourah","location":"JQ63+7F8, Muhammad Ibn Shuail, Al Mansourah, Riyadh 12694","phone":"0114467997","rate":4.4,"reviews":27,"lat":24.6106554,"lng":46.753695099999995,"mapUrl":null,"owner":null,"matchedRule":"google_type:ice cream shop","businessStatus":null,"photoCount":null},{"id":"0x3e2f09034775d647:0xf403526af4854e05","status":"stable","name":"ضبط شاي","category":"شاهي","type":"Tea house","district":"Al Aziziyah","location":"8437 Southern Ring Branch Rd, Al Aziziyah, 2697, Riyadh 14511","phone":"0597716287","rate":4.3,"reviews":357,"lat":24.6093728,"lng":46.7639188,"mapUrl":null,"owner":null,"matchedRule":"keyword:tea","businessStatus":null,"photoCount":null},{"id":"0x3e2f05361a1ac6df:0xc99f32e11ac9d5d7","status":"stable","name":"تموينات ومخابز بركات الديرة","category":"بيكري","type":"Supermarket","district":"البديعة","location":"Al Badi'ah، JM8G+53V، سماحة الشيخ عبدالعزيز بن باز، حي البديعة, Riyadh 12755","phone":"0593925826","rate":4.1,"reviews":430,"lat":24.615444,"lng":46.675156699999995,"mapUrl":null,"owner":null,"matchedRule":"keyword:bakery","businessStatus":null,"photoCount":null},{"id":"0x3e2f0ff93c30e275:0xd71fb50930ae1e41","status":"stable","name":"حلويات مني كيك المنصوره","category":"حلا","type":"Candy store","district":"المنصورة","location":"حي, 7944 معن بن زائدة، المنصورة، الرياض 12691 2827،","phone":"0530553563","rate":4.6,"reviews":19,"lat":24.616271299999998,"lng":46.7458594,"mapUrl":null,"owner":null,"matchedRule":"keyword:dessert","businessStatus":null,"photoCount":null},{"id":"0x3e2f0f68aed22323:0x8c0596bd4e0013fe","status":"stable","name":"أسواق ومخابز روضة الياسمين -2","category":"بيكري","type":"Supermarket","district":"معن بن زائدة","location":"معن بن زائدة, شارع معن بن زائدة, Riyadh","phone":"0536881668","rate":4.3,"reviews":12,"lat":24.6152496,"lng":46.7470669,"mapUrl":null,"owner":null,"matchedRule":"keyword:bakery","businessStatus":null,"photoCount":null},{"id":"0x3e2f09231243b1c3:0xc0c87e151f9d8939","status":"stable","name":"Gawar Alromansiyah","category":"بيكري","type":"Bakery","district":"المنصورة","location":"7678، 3832-3630 الامير مشاري بن سعود بن عبدالعزيز، المنصورة، الرياض 12692، 12692","phone":"0505135324","rate":4.5,"reviews":46,"lat":24.6127778,"lng":46.7537594,"mapUrl":null,"owner":null,"matchedRule":"google_type:bakery","businessStatus":null,"photoCount":null},{"id":"0x3e2f1f000b598d8b:0x480de63454b333a8","status":"stable","name":"أسواق ومخابز درة الريف","category":"بيكري","type":"Supermarket","district":"غير محدد","location":"6569 Al Shafa 2789 الشفا،, Riyadh 13784","phone":"0535367547","rate":3.7,"reviews":108,"lat":24.6212721,"lng":46.533231799999996,"mapUrl":null,"owner":null,"matchedRule":"keyword:bakery","businessStatus":null,"photoCount":null},{"id":"0x3e2f05ff104415c5:0x4e8b39ac2de87ab4","status":"stable","name":"مخابز و حلويات التسهيلات","category":"بيكري","type":"Bakery","district":"معن بن زائدة","location":"معن بن زائدة, Al Mansourah, Riyadh 12691","phone":"0114461070","rate":3.8,"reviews":95,"lat":24.6185823,"lng":46.744677599999996,"mapUrl":null,"owner":null,"matchedRule":"keyword:bakery","businessStatus":null,"photoCount":null},{"id":"0x3e2f0600452b5683:0xb60d85edae3d89f1","status":"stable","name":"Baskin Robbins","category":"حلا","type":"Ice cream shop","district":"Al Mansourah","location":"JPCX+4R8, Al Mansourah, Riyadh 12692","phone":"0138343410","rate":4.1,"reviews":477,"lat":24.620289699999997,"lng":46.749566699999995,"mapUrl":null,"owner":null,"matchedRule":"brand:baskin_robbins","businessStatus":null,"photoCount":null},{"id":"0x3e2f06005a8da80d:0x71865cd14e0ecac7","status":"stable","name":"Jareer Sweets - Kabbani","category":"حلا","type":"Dessert shop","district":"Al Kharj Rd","location":"حي, Al Kharj Rd, Al Mansourah, Riyadh 12692","phone":"0114463085","rate":4.1,"reviews":330,"lat":24.6203678,"lng":46.749413399999995,"mapUrl":null,"owner":null,"matchedRule":"brand:jareer_sweets","businessStatus":null,"photoCount":null},{"id":"0x3e2fa78d9cc352dd:0x22af334ff60bdbb4","status":"stable","name":"Lucas Arabia - لوكاس ارابيا","category":"قهوة","type":"Coffee shop","district":"As Sulay","location":"As Sulay, حي, 6225 طريق هارون الرشيد، السلي، الرياض 14322 2886،،, Riyadh 14322","phone":"0506383187","rate":5.0,"reviews":2,"lat":24.61865,"lng":46.8342861,"mapUrl":null,"owner":null,"matchedRule":"google_type:coffee shop","businessStatus":null,"photoCount":null},{"id":"0x3e2f060327bc3cc7:0x3be1c424b27bcc43","status":"stable","name":"المعيذر لتجهيز المخابز و محلات الشوكولا","category":"شوكولاتة","type":"Dessert shop","district":"Al Khalidiyyah","location":"4061 طريق الأمير محمد بن عبدالرحمن الفرعي, Al Khalidiyyah, Riyadh 12875","phone":"0503429055","rate":4.1,"reviews":424,"lat":24.623701,"lng":46.7572204,"mapUrl":null,"owner":null,"matchedRule":"keyword:chocolate","businessStatus":null,"photoCount":null},{"id":"0x3e2f061db72f009d:0xbbc576a69c44ddb4","status":"stable","name":"اسواق اللحيدان","category":"بيكري","type":"Bakery","district":"الخالدية","location":"الخالدية،","phone":"0509138069","rate":4.0,"reviews":82,"lat":24.624327299999997,"lng":46.760891099999995,"mapUrl":null,"owner":null,"matchedRule":"google_type:bakery","businessStatus":null,"photoCount":null},{"id":"0x3e2fa79f5de1bd25:0x3fbcf0b93e89849c","status":"stable","name":"مستودع باسلات","category":"قهوة","type":"Coffee machine supplier","district":"As Sulay","location":"As Sulay، شارع الصفا من هارون الرشيد منطقة, Riyadh 14325","phone":"0555810322","rate":4.0,"reviews":22,"lat":24.6246209,"lng":46.8439483,"mapUrl":null,"owner":null,"matchedRule":"google_type:coffee machine supplier","businessStatus":null,"photoCount":null},{"id":"0x3e2f1bbdd337d80d:0xae85a69ab3e009ce","status":"stable","name":"باسكن روبنز","category":"حلا","type":"Ice cream shop","district":"هجرة لبن","location":"طريق الأمير أحمد بن عبدالعزيز، 3352 طريق الأمير أحمد بن عبدالعزيز ، هجرة لبن، الرياض 12936 6084،، الرياض 12936 6084، الرياض 12933،","phone":null,"rate":4.1,"reviews":143,"lat":24.6301538,"lng":46.6005817,"mapUrl":null,"owner":null,"matchedRule":"brand:baskin_robbins","businessStatus":null,"photoCount":null},{"id":"0x3e2f19acb20a9427:0x5880314f69b8ec7e","status":"stable","name":"متجر سكر وحلاوة للحلويات وللمواد الغذايه المخفضه","category":"حلا","type":"Supermarket","district":"Dhahrat Laban","location":"JHG9+R49، شارع طيبة،, Dhahrat Laban, Riyadh 13781","phone":"0558177411","rate":4.1,"reviews":18,"lat":24.6270396,"lng":46.5678722,"mapUrl":null,"owner":null,"matchedRule":"keyword:dessert","businessStatus":null,"photoCount":null},{"id":"0x3e2f1f9a7327f901:0xf00b335dbe5c24a4","status":"stable","name":"حلويات الديم (حي لبن )","category":"حلا","type":"Dessert shop","district":"لبن","location":"Asir St, حي لبن، Riyadh 13782","phone":"0557743119","rate":4.5,"reviews":24,"lat":24.6341695,"lng":46.5564901,"mapUrl":null,"owner":null,"matchedRule":"keyword:dessert","businessStatus":null,"photoCount":null},{"id":"0x3e2f1f80cb45724d:0x40cc7c91ff365058","status":"stable","name":"Cinnabon سينابون","category":"بيكري","type":"Bakery","district":"Dhahrat Laban","location":"4146 7738 Nahawand, Dhahrat Laban, Riyadh 13782","phone":null,"rate":2.8,"reviews":220,"lat":24.6332432,"lng":46.565024,"mapUrl":null,"owner":null,"matchedRule":"brand:cinnabon","businessStatus":null,"photoCount":null},{"id":"0x3e2f1f6743f99fd9:0xa4da6f9df82ddc01","status":"stable","name":"Saadeddin pastry","category":"بيكري","type":"Candy store","district":"ضاحية لبن","location":"4272 الشفا، ضاحية لبن، الرياض 13782","phone":"920017070","rate":3.9,"reviews":710,"lat":24.6335961,"lng":46.5667517,"mapUrl":null,"owner":null,"matchedRule":"brand:saadeddin","businessStatus":null,"photoCount":null},{"id":"0x3e2f1ffae86e4061:0x6156e76af1446d04","status":"stable","name":"Basbosah Time","category":"حلا","type":"Candy store","district":"غير محدد","location":"4117 المرج، 7718, Riyadh 13782","phone":"0580415689","rate":4.0,"reviews":144,"lat":24.633112699999998,"lng":46.5651547,"mapUrl":null,"owner":null,"matchedRule":"google_type:candy store","businessStatus":null,"photoCount":null},{"id":"0x3e2f05007b3ed5e7:0xf1e9f9dd3eba9bf2","status":"stable","name":"مخبز محمد الرويسلن","category":"بيكري","type":"Bakery","district":"Al-Shemaysi","location":"Al-Shemaysi، RBGE8342، 8342 العجلية، 4430, Riyadh 12744","phone":null,"rate":1.0,"reviews":2,"lat":24.6337925,"lng":46.699197,"mapUrl":null,"owner":null,"matchedRule":"keyword:bakery","businessStatus":null,"photoCount":null},{"id":"0x3e2f1ff045fac8d7:0x1d338972f694ef8b","status":"stable","name":"بن منقاش","category":"محمصة","type":"Herb shop","district":"Najd","location":"JHPC+842, Najd، جوار سنابل السلام, Riyadh 13782","phone":null,"rate":4.0,"reviews":62,"lat":24.6357596,"lng":46.5702664,"mapUrl":null,"owner":null,"matchedRule":"brand:bin_menqash","businessStatus":null,"photoCount":null},{"id":"0x3e2f1f4ceacdb0f3:0xb18e6df318e1d548","status":"stable","name":"باسكن روبنز","category":"حلا","type":"Ice cream shop","district":"ظهرة لبن","location":"4542 الطائف، ظهرة لبن، الرياض 13753 7136،، ظهرة لبن، الرياض 13753،","phone":null,"rate":3.1,"reviews":73,"lat":24.6405852,"lng":46.5409843,"mapUrl":null,"owner":null,"matchedRule":"brand:baskin_robbins","businessStatus":null,"photoCount":null},{"id":"0x3e2f05b32b06dcf9:0x6553cc80a0729f04","status":"stable","name":"مقهى","category":"قهوة","type":"Coffee shop","district":"النموذجية","location":"MM2Q+JR9، النموذجية، الرياض 12734،","phone":"0531047279","rate":3.0,"reviews":4,"lat":24.6515311,"lng":46.6897169,"mapUrl":null,"owner":null,"matchedRule":"keyword:coffee","businessStatus":null,"photoCount":null},{"id":"0x3e2f05e730636d4f:0x99d076f18be9608b","status":"stable","name":"قهوجين وصبابين دخل الرياض وخارج الرياض","category":"قهوة","type":"Coffee store","district":"Al Nasiriyyah","location":"Al Nasiriyyah, Riyadh 12732","phone":"0551377437","rate":5.0,"reviews":2,"lat":24.6511906,"lng":46.6894948,"mapUrl":null,"owner":null,"matchedRule":"google_type:coffee store","businessStatus":null,"photoCount":null},{"id":"0x3e2f05003ab25429:0xfa9f76778b99b442","status":"stable","name":"القحطاني للحفلات والمناسبات","category":"قهوة","type":"Coffee shop","district":"An Namudhajiyah","location":"MM2Q+JV4, An Namudhajiyah, Riyadh 12734","phone":"0551562080","rate":5.0,"reviews":2,"lat":24.6515019,"lng":46.689697599999995,"mapUrl":null,"owner":null,"matchedRule":"google_type:coffee shop","businessStatus":null,"photoCount":null},{"id":"0x3e2f055fe3a0f90b:0x23c72c424d54310d","status":"stable","name":"Dunkin' - دانكن","category":"دونات","type":"Coffee shop","district":"Al Sina'iyah","location":"طريق الثمامة, Al Sina'iyah, Riyadh 12844","phone":null,"rate":3.7,"reviews":28,"lat":24.6505865,"lng":46.7405906,"mapUrl":null,"owner":null,"matchedRule":"brand:dunkin","businessStatus":null,"photoCount":null},{"id":"0x3e2f05098791067b:0xe4bcdd2abb603e3e","status":"stable","name":"Lounge Cafe","category":"قهوة","type":"Cafe","district":"Al Sina'iyah","location":"MP2R+45C, Al Sina'iyah, Riyadh 12844","phone":null,"rate":3.9,"reviews":17,"lat":24.650306699999998,"lng":46.740404999999996,"mapUrl":null,"owner":null,"matchedRule":"keyword:coffee","businessStatus":null,"photoCount":null},{"id":"0x3e2f04b3f5996711:0xa6c2678b3aaba693","status":"stable","name":"Al-Subaie Bakery And Restaurant","category":"بيكري","type":"Restaurant","district":"Ash Sharafiyah","location":"MM3F+GQX، طريق الامام فيصل بن فهد بن عبد العزيز, Ash Sharafiyah, Riyadh 12724","phone":"0500357955","rate":4.1,"reviews":958,"lat":24.6538567,"lng":46.6744991,"mapUrl":null,"owner":null,"matchedRule":"keyword:bakery","businessStatus":null,"photoCount":null},{"id":"0x3e2f051bf97255dd:0xb3879ad418af3ef1","status":"stable","name":"Malbriz Cafe","category":"قهوة","type":"Fast food restaurant","district":"غير محدد","location":"8657 Ali Ibn Muhammad Ibn Abd Al Wahab, 8657, 2997, Riyadh 12641","phone":"0583897209","rate":4.2,"reviews":433,"lat":24.6541815,"lng":46.7252344,"mapUrl":null,"owner":null,"matchedRule":"keyword:coffee","businessStatus":null,"photoCount":null},{"id":"0x3e2f1f54d7e99451:0xe765db5d47f77aaa","status":"stable","name":"اسواق ومخابز متاجر الوسطى حي المهديه","category":"بيكري","type":"Supermarket","district":"المهدية","location":"حي, 4626 طريق السيل الكبير، المهدية، الرياض 13758 6868","phone":null,"rate":4.0,"reviews":264,"lat":24.663513299999998,"lng":46.5242611,"mapUrl":null,"owner":null,"matchedRule":"keyword:bakery","businessStatus":null,"photoCount":null},{"id":"0x3e2efd806fced97d:0xdea715f1445e2152","status":"stable","name":"Blue Mountain Coffee Management Office","category":"قهوة","type":"Coffee wholesaler","district":"As Sulay","location":"MR8W+3H, As Sulay, Riyadh 14275","phone":"0505566147","rate":4.8,"reviews":15,"lat":24.665129699999998,"lng":46.8464344,"mapUrl":null,"owner":null,"matchedRule":"keyword:coffee","businessStatus":null,"photoCount":null},{"id":"0x3e2efda0320c95df:0x61bb63dee2aaa0a7","status":"stable","name":"Yolu Kahvesi","category":"قهوة","type":"Coffee wholesaler","district":"As Sulay","location":"MR8W+3H, As Sulay, Riyadh 14275","phone":"0505566147","rate":5.0,"reviews":1,"lat":24.665129999999998,"lng":46.8464317,"mapUrl":null,"owner":null,"matchedRule":"google_type:coffee wholesaler","businessStatus":null,"photoCount":null},{"id":"0x3e2fa86cfb53884f:0x40b343af0542385d","status":"stable","name":"Dallat Albon Trading Co","category":"قهوة","type":"Coffee wholesaler","district":"غير محدد","location":"3034, Riyadh","phone":"0112427985","rate":4.4,"reviews":57,"lat":24.6651897,"lng":46.8464202,"mapUrl":null,"owner":null,"matchedRule":"google_type:coffee wholesaler","businessStatus":null,"photoCount":null},{"id":"0x3e2f1cad761ec665:0xbb64d86c711fe9a7","status":"stable","name":"Baskin Robbins","category":"حلا","type":"Ice cream shop","district":"Al Maather","location":"4539 Makkah Al Mukarramah Br Rd, Al Maather, Riyadh 12721","phone":"920013120","rate":4.2,"reviews":43,"lat":24.674246999999998,"lng":46.6683801,"mapUrl":null,"owner":null,"matchedRule":"brand:baskin_robbins","businessStatus":null,"photoCount":null},{"id":"0x3e2f0579524444c3:0x28c5a82579076f0b","status":"stable","name":"Almas juice and falooda center","category":"حلا","type":"Ice cream shop","district":"Al Malaz","location":"2112 Al Hawwari, Al Malaz, REMC7918, 7918, Riyadh 12831","phone":"0114771437","rate":3.6,"reviews":8,"lat":24.6780629,"lng":46.7275437,"mapUrl":null,"owner":null,"matchedRule":"google_type:ice cream shop","businessStatus":null,"photoCount":null},{"id":"0x3e2f035d7ac6df99:0x30a0ce11b16dae81","status":"stable","name":"Continent Al Waha Hotel","category":"قهوة","type":"Cafe","district":"Al Olaya","location":"Wadi AlDawasir Street, Al Olaya, Riyadh 12211","phone":"0114612288","rate":3.9,"reviews":1422,"lat":24.680947,"lng":46.689277999999995,"mapUrl":null,"owner":null,"matchedRule":"google_type:cafe","businessStatus":null,"photoCount":null},{"id":"0x3e2f071b9cc37e6b:0x7881181dee98c425","status":"stable","name":"Baskin Robbins","category":"حلا","type":"Ice cream shop","district":"Al Jazirah","location":"MQMR+HR4, Prince Saad Ibn Abdulrahman Al Awal Branch Rd, Al Jazirah, Riyadh 14251","phone":"920013120","rate":4.0,"reviews":245,"lat":24.683892,"lng":46.792065699999995,"mapUrl":null,"owner":null,"matchedRule":"brand:baskin_robbins","businessStatus":null,"photoCount":null},{"id":"0x3e2f07932a4812b9:0xb07d67d3e17ff945","status":"stable","name":"كنافة أبو الهوس الجزيرة","category":"حلا","type":"Bakery","district":"غير محدد","location":"Prince Saad Ibn Abdulrahman Al Awal Rd, ،، Riyadh 14251","phone":"920008914","rate":4.2,"reviews":602,"lat":24.684312499999997,"lng":46.7929375,"mapUrl":null,"owner":null,"matchedRule":"keyword:dessert","businessStatus":null,"photoCount":null},{"id":"0x3e2f0764d966ebb5:0x86bcfa1f3c9777cb","status":"stable","name":"Mamola","category":"حلا","type":"Confectionery store","district":"الفيحاء","location":"طريق هارون الرشيد، ، الفيحاء, Riyadh 14253","phone":"0555117315","rate":4.3,"reviews":266,"lat":24.6830422,"lng":46.7980109,"mapUrl":null,"owner":null,"matchedRule":"brand:mamola","businessStatus":null,"photoCount":null},{"id":"0x3e2f07779de2586d:0x2fc133c62701a008","status":"stable","name":"Baskin Robbins","category":"حلا","type":"Ice cream shop","district":"Al Fayha","location":"MRJ7+VVR, Al Imam Al Shafei, Al Fayha, Riyadh 14253","phone":"920013120","rate":4.0,"reviews":120,"lat":24.6822338,"lng":46.814651399999995,"mapUrl":null,"owner":null,"matchedRule":"brand:baskin_robbins","businessStatus":null,"photoCount":null},{"id":"0x3e2f1ce5ab7e08d1:0x60d67e93796261fd","status":"stable","name":"Al Baraka Sweets","category":"حلا","type":"Candy store","district":"Umm Al Hamam Al Gharbi","location":"3473 Prince Nawaf Ibn AbdulAziz, Umm Al Hamam Al Gharbi, Riyadh 12324","phone":"0540430388","rate":4.2,"reviews":723,"lat":24.6880264,"lng":46.644725699999995,"mapUrl":null,"owner":null,"matchedRule":"keyword:dessert","businessStatus":null,"photoCount":null},{"id":"0x3e2f076dc79e494b:0xca2a9e8a0a4f9a51","status":"stable","name":"Saadeddin Pastry Head Office","category":"بيكري","type":"Coffee shop","district":"طلحة بن عبيد الله","location":"طلحة بن عبيد الله, Al Fayha, Riyadh 14253","phone":"0114713747","rate":4.1,"reviews":302,"lat":24.6889148,"lng":46.809596899999995,"mapUrl":null,"owner":null,"matchedRule":"brand:saadeddin","businessStatus":null,"photoCount":null},{"id":"0x3e2fa9d460b48de5:0x8d97cb9ec54a6ae4","status":"stable","name":"Al Qassim Bakeries","category":"بيكري","type":"Bakery","district":"Al Bayan","location":"MRQH+3MR, Al Bayan, As Saadah, Riyadh 14256","phone":null,"rate":3.6,"reviews":102,"lat":24.6877325,"lng":46.829141899999996,"mapUrl":null,"owner":null,"matchedRule":"keyword:bakery","businessStatus":null,"photoCount":null},{"id":"0x3e2f1dc5105781a1:0xecde3750c6e12909","status":"stable","name":"Baskin Robbins","category":"حلا","type":"Ice cream shop","district":"Abi Al Abbas Al Harbi","location":"MJR3+WV6, Abi Al Abbas Al Harbi, Irqah, Riyadh 12532","phone":"920013120","rate":3.9,"reviews":349,"lat":24.6922943,"lng":46.6046372,"mapUrl":null,"owner":null,"matchedRule":"brand:baskin_robbins","businessStatus":null,"photoCount":null},{"id":"0x3e2f06b0389c738f:0xe3b46a7ef22b8806","status":"stable","name":"The Cake House | بيت الكيك","category":"حلا","type":"Cake shop","district":"Ar Rabwah","location":"Umar Ibn Abdul Aziz Br Rd, Ar Rabwah, Riyadh 11564","phone":"920011122","rate":3.6,"reviews":188,"lat":24.690218299999998,"lng":46.7588825,"mapUrl":null,"owner":null,"matchedRule":"keyword:dessert","businessStatus":null,"photoCount":null},{"id":"0x3e2f0748e5ea6ec3:0x1653c5e178166113","status":"stable","name":"ايس كريم حلو | ice cream Sweet","category":"حلا","type":"Ice cream shop","district":"Al Jazirah","location":"Prince Saad Ibn Abdulrahman Al Awal Rd, Al Jazirah, Riyadh 14251","phone":"0508577117","rate":4.6,"reviews":241,"lat":24.693877699999998,"lng":46.7849389,"mapUrl":null,"owner":null,"matchedRule":"keyword:dessert","businessStatus":null,"photoCount":null},{"id":"0x3e2f06c92cb3ed47:0xe36c90752e251bf2","status":"stable","name":"Anoosh","category":"شوكولاتة","type":"Dessert shop","district":"Eastern Ring Rd","location":"Eastern Ring Rd، حي الربوة.مخرج14, Riyadh","phone":"0594016914","rate":4.2,"reviews":518,"lat":24.6960722,"lng":46.7721862,"mapUrl":null,"owner":null,"matchedRule":"brand:anoosh","businessStatus":null,"photoCount":null},{"id":"0x3e2f06d09cafaae9:0xdb9e22081668da17","status":"stable","name":"Mohamed Al Rasheed Sweets","category":"حلا","type":"Candy store","district":"Ar Rawabi","location":"7849 Al-Bondoq, Ar Rawabi, Riyadh 14215","phone":"0114932247","rate":4.1,"reviews":962,"lat":24.696352299999997,"lng":46.7798969,"mapUrl":null,"owner":null,"matchedRule":"keyword:dessert","businessStatus":null,"photoCount":null},{"id":"0x3e2f06d9c2a08c51:0x55abbded5bfbb385","status":"stable","name":"Baskin Robbins","category":"حلا","type":"Ice cream shop","district":"Ar Rawabi","location":"7965 Unayzah St, 2906, Ar Rawabi, Riyadh 14214","phone":"920013120","rate":4.1,"reviews":328,"lat":24.6965872,"lng":46.7829991,"mapUrl":null,"owner":null,"matchedRule":"brand:baskin_robbins","businessStatus":null,"photoCount":null},{"id":"0x3e2f07d77f9d99bd:0x5049be014166d0e9","status":"stable","name":"Voltage cafe","category":"قهوة","type":"Coffee shop","district":"سعد بن عبدالرحمن","location":"سعد بن عبدالرحمن, As Salam, Riyadh 14227","phone":"0547568694","rate":4.4,"reviews":7,"lat":24.698979899999998,"lng":46.823273199999996,"mapUrl":null,"owner":null,"matchedRule":"keyword:coffee","businessStatus":null,"photoCount":null},{"id":"0x3e2fa917bd7c6c55:0xc152f9b46f69647a","status":"stable","name":"باسكن روبنز","category":"حلا","type":"Ice cream shop","district":"الفرعي","location":"MRXP+QGP، شارع شبه الجزيرة، الفرعي, Riyadh 14255","phone":null,"rate":2.3,"reviews":11,"lat":24.6994649,"lng":46.836333499999995,"mapUrl":null,"owner":null,"matchedRule":"brand:baskin_robbins","businessStatus":null,"photoCount":null},{"id":"0x3e2f1d3c9a62aa9d:0xdde9bff52e986a41","status":"stable","name":"Alfie’s","category":"قهوة","type":"Coffee shop","district":"غير محدد","location":"7296 حي, RGDA2790، 2790 ابي فراس الحمداني, Riyadh 12356","phone":"0593807662","rate":4.2,"reviews":380,"lat":24.7058456,"lng":46.6311696,"mapUrl":null,"owner":null,"matchedRule":"google_type:coffee shop","businessStatus":null,"photoCount":null},{"id":"0x3e2f1d004fefb82f:0x254801a036cb15dd","status":"stable","name":"شاي خثره","category":"شاهي","type":"Cafe","district":"Abi Firas Al Hamdani","location":"PJ4J+888, Abi Firas Al Hamdani, Al Raed, Riyadh 12356","phone":"0542302936","rate":4.5,"reviews":115,"lat":24.7057868,"lng":46.630815299999995,"mapUrl":null,"owner":null,"matchedRule":"keyword:tea","businessStatus":null,"photoCount":null},{"id":"0x3e2f1d50de2f5a01:0x639ee8df614fead2","status":"stable","name":"مقهى البقالة","category":"قهوة","type":"Coffee shop","district":"Al Raed","location":"7296 حي, Al Raed, RGDA2790، 2790 ابي فراس الحمداني, Riyadh 12356","phone":null,"rate":4.8,"reviews":12,"lat":24.705906,"lng":46.631046,"mapUrl":null,"owner":null,"matchedRule":"keyword:coffee","businessStatus":null,"photoCount":null},{"id":"0x3e2f032c66454919:0xa940a7ef76f9c5ef","status":"stable","name":"عجين وفرن","category":"بيكري","type":"Bakery","district":"السليمانية","location":"8072 حي السليمانية, RHSB3256، 3256 الأمير سلطان بن عبدالعزيز, Riyadh 12234","phone":null,"rate":3.0,"reviews":5,"lat":24.7019931,"lng":46.7116839,"mapUrl":null,"owner":null,"matchedRule":"google_type:bakery","businessStatus":null,"photoCount":null},{"id":"0x3e2f0149fbf9844f:0x5c190abda983a62c","status":"stable","name":"Baskin Robbins","category":"حلا","type":"Ice cream shop","district":"Ar Rabwah","location":"PQ48+CQC, Ar Rabwah, Riyadh 12822","phone":null,"rate":4.0,"reviews":152,"lat":24.706052999999997,"lng":46.766877,"mapUrl":null,"owner":null,"matchedRule":"brand:baskin_robbins","businessStatus":null,"photoCount":null},{"id":"0x3e2f07ab47e15a17:0xc9c9409a850ab9d9","status":"stable","name":"Mathaq Alfurn","category":"بيكري","type":"Bakery","district":"Ar Rayyan","location":"Al-Imam Ahmad Bin Hanbal St, Ar Rayyan, Riyadh 14213","phone":"0580771187","rate":4.6,"reviews":121,"lat":24.704014599999997,"lng":46.7805885,"mapUrl":null,"owner":null,"matchedRule":"google_type:bakery","businessStatus":null,"photoCount":null},{"id":"0x3e2f1d2e824f435f:0xcd6915cf914d5d71","status":"stable","name":"CDC - Cake Decoration Center","category":"حلا","type":"Baking supply store","district":"غير محدد","location":"Uruba Road, Riyadh","phone":"0555023756","rate":4.0,"reviews":445,"lat":24.709737399999998,"lng":46.665633299999996,"mapUrl":null,"owner":null,"matchedRule":"keyword:dessert","businessStatus":null,"photoCount":null},{"id":"0x3e2f07005a6f7cb9:0x6c0994d86c697475","status":"stable","name":"قرصان الحارة","category":"بيكري","type":"Bakery","district":"As Salam","location":"PR56+2V7, Al Zoubair Ibn Al Awwam, As Salam, Riyadh 14226","phone":"0530008750","rate":4.6,"reviews":8,"lat":24.7075453,"lng":46.8121826,"mapUrl":null,"owner":null,"matchedRule":"brand:qursan","businessStatus":null,"photoCount":null},{"id":"0x3e2f1d9a0b76fe67:0x47cf389ff79eddb8","status":"stable","name":"سعد الدين للحلويات","category":"بيكري","type":"Candy store","district":"غير محدد","location":"3200, Riyadh 12372","phone":"920017070","rate":3.7,"reviews":204,"lat":24.7127424,"lng":46.6225601,"mapUrl":null,"owner":null,"matchedRule":"brand:saadeddin","businessStatus":null,"photoCount":null},{"id":"0x3e2f07ec081f2a9b:0xffd982ed19026e4a","status":"stable","name":"CLAY BAKERY u0026 PASTRY","category":"بيكري","type":"Cafe","district":"Ar Rayyan","location":"2219 Eastern Ring Branch Rd, Ar Rayyan, Riyadh 14211","phone":"0556837493","rate":4.5,"reviews":985,"lat":24.7123976,"lng":46.7638821,"mapUrl":null,"owner":null,"matchedRule":"keyword:bakery","businessStatus":null,"photoCount":null},{"id":"0x3e2f02d22ab8de1b:0x79dc4c47ea8be4a0","status":"stable","name":"Al Kamar","category":"قهوة","type":"Cafe","district":"غير محدد","location":"road, kamish mushaith. al moosa near Riyadh, Riyadh","phone":"0568914596","rate":3.7,"reviews":3,"lat":24.7135517,"lng":46.6752957,"mapUrl":null,"owner":null,"matchedRule":"google_type:cafe","businessStatus":null,"photoCount":null},{"id":"0x3e2fa906333f5023:0x947c26d4485f6e6f","status":"stable","name":"ركن بيت وناسة للحلويات bait wanasah","category":"حلا","type":"Convenience store","district":"An Nasim Al Gharbi","location":"7023 Saad Ibn Abi Waqqas, An Nasim Al Gharbi، 3652، 3652 سعد بن ابي وقاص، 7023 الرياض 14235, Riyadh 14235","phone":"0562662618","rate":3.7,"reviews":82,"lat":24.7121693,"lng":46.8312889,"mapUrl":null,"owner":null,"matchedRule":"keyword:dessert","businessStatus":null,"photoCount":null},{"id":"0x3e2f1d38603fbd5f:0x18518436b79796d4","status":"stable","name":"Rose Sweets - حلويات روز","category":"حلا","type":"Candy store","district":"Al Takhassousi","location":"PM95+9GQ, Al Takhassousi, Ar Rahmaniyyah, Riyadh 12343","phone":"0533315437","rate":4.1,"reviews":656,"lat":24.718559,"lng":46.6588937,"mapUrl":null,"owner":null,"matchedRule":"keyword:dessert","businessStatus":null,"photoCount":null},{"id":"0x3e2fa9f93f7efd1f:0xd38a52f7a295c6c","status":"stable","name":"فطائر زينب","category":"بيكري","type":"Breakfast restaurant","district":"An Nasim Al Gharbi","location":"An Nasim Al Gharbi, Riyadh 14234","phone":"0112357000","rate":3.9,"reviews":185,"lat":24.7203387,"lng":46.8313248,"mapUrl":null,"owner":null,"matchedRule":"keyword:bakery","businessStatus":null,"photoCount":null},{"id":"0x3e2f1d412dbe78c7:0xf4b0b96846fabccd","status":"stable","name":"AlHatab Bakery | أفران الحطب","category":"بيكري","type":"Bakery","district":"AL RAHMANIYAH DIST","location":"7844 Al Takhassousi, AL RAHMANIYAH DIST، Riyadh 12344","phone":"920002281","rate":4.4,"reviews":1195,"lat":24.7214426,"lng":46.655698799999996,"mapUrl":null,"owner":null,"matchedRule":"brand:al_hatab","businessStatus":null,"photoCount":null},{"id":"0x3e2f00d8e3633bd9:0x609158a758855525","status":"stable","name":"Baskin Robbins","category":"حلا","type":"Ice cream shop","district":"Al Manar","location":"PQCQ+JF6, Al Imam Al Shafei, Al Manar, Riyadh 14221","phone":"920013120","rate":3.8,"reviews":90,"lat":24.721525099999997,"lng":46.7886543,"mapUrl":null,"owner":null,"matchedRule":"brand:baskin_robbins","businessStatus":null,"photoCount":null},{"id":"0x3e2f01001ead6365:0x6f4b57b95738fc1b","status":"stable","name":"أسواق ومخابز نجوم الجزيرة","category":"بيكري","type":"Supermarket","district":"Al Manar","location":"PRF4+876, Al Manar, Riyadh 14222","phone":"0570382121","rate":4.0,"reviews":2,"lat":24.7232891,"lng":46.8056506,"mapUrl":null,"owner":null,"matchedRule":"keyword:bakery","businessStatus":null,"photoCount":null},{"id":"0x3e2fa98dddee8a35:0x7ab58b5fc709cb28","status":"stable","name":"مخبز","category":"بيكري","type":"Bakery","district":"Abi Hourairah","location":"PRCX+RM4, Abi Hourairah, An Nasim Ash Sharqi, Riyadh 14245","phone":"0507676281","rate":3.1,"reviews":9,"lat":24.722003299999997,"lng":46.8491955,"mapUrl":null,"owner":null,"matchedRule":"keyword:bakery","businessStatus":null,"photoCount":null},{"id":"0x3e2ee340479f4c57:0x6f6c8e4ef28c0923","status":"stable","name":"ايسكريم سُكره","category":"حلا","type":"Ice cream shop","district":"An Nakheel","location":"Prince Abdulaziz Ibn Thunayyan St, An Nakheel, Riyadh 11411","phone":"0537064474","rate":4.4,"reviews":7,"lat":24.7279791,"lng":46.6062686,"mapUrl":null,"owner":null,"matchedRule":"google_type:ice cream shop","businessStatus":null,"photoCount":null},{"id":"0x3e2fa9179aa66b3b:0xfa42e1f10d2ab715","status":"stable","name":"مخبز خبز صاج","category":"بيكري","type":"Bakery","district":"An Nasim Ash Sharqi","location":"4068 محمد المفيدي، النسيم الشرقي، الرياض 14245 7492،","phone":"0576967756","rate":4.1,"reviews":41,"lat":24.726634999999998,"lng":46.850945599999996,"mapUrl":null,"owner":null,"matchedRule":"keyword:bakery","businessStatus":null,"photoCount":null},{"id":"0x3e2f02b0ce1b6939:0x2c099a6b52443754","status":"stable","name":"Cake u0026 Co","category":"حلا","type":"Cake shop","district":"Al Wurud","location":"3118 Prince Ahmad Ibn Abd Al Aziz, Al Wurud, 8065 الأمير احمد بن عبدالعزيز،, Riyadh 12254","phone":"0112050845","rate":4.1,"reviews":155,"lat":24.7310488,"lng":46.6788131,"mapUrl":null,"owner":null,"matchedRule":"keyword:dessert","businessStatus":null,"photoCount":null},{"id":"0x3e2f011dae55efef:0xc821af340585bc4","status":"stable","name":"Baskin Robbins","category":"حلا","type":"Ice cream shop","district":"Ar Rawdah","location":"7977 Ismail Ibn As Sultan, Ar Rawdah, Riyadh 13211","phone":null,"rate":4.0,"reviews":94,"lat":24.7330085,"lng":46.7845824,"mapUrl":null,"owner":null,"matchedRule":"brand:baskin_robbins","businessStatus":null,"photoCount":null},{"id":"0x3e2f034c5bd84e8d:0x1f8e2b30e4884e8d","status":"stable","name":"Mövenpick I've cream","category":"حلا","type":"Ice cream shop","district":"غير محدد","location":"PMPM+QHV Sahara Mall, King Abdulaziz Rd, King Fahd, Riyadh 12272","phone":null,"rate":3.9,"reviews":10,"lat":24.736991099999997,"lng":46.6839233,"mapUrl":null,"owner":null,"matchedRule":"google_type:ice cream shop","businessStatus":null,"photoCount":null},{"id":"0x3e2f02f533e76cab:0x2edfb2449982dee6","status":"stable","name":"Baskin Robbins","category":"حلا","type":"Ice cream shop","district":"مجمع أسواق السنبلة","location":"مجمع أسواق السنبلة، 2472 Rafha St, King Salman Neighborhood, Riyadh 12443","phone":"920013120","rate":3.9,"reviews":84,"lat":24.7365864,"lng":46.707532799999996,"mapUrl":null,"owner":null,"matchedRule":"brand:baskin_robbins","businessStatus":null,"photoCount":null},{"id":"0x3e2f030062cb3ed3:0x7d5470921dc97213","status":"stable","name":"حمد للحلويات والمشروبات","category":"حلا","type":"Coffee shop","district":"غير محدد","location":"RHHA4086، 8000 Abha, King Salman Neighborhood، 4086, Riyadh 12443","phone":"0551401177","rate":5.0,"reviews":3,"lat":24.738089,"lng":46.7239759,"mapUrl":null,"owner":null,"matchedRule":"keyword:dessert","businessStatus":null,"photoCount":null},{"id":"0x3e2f010385b92869:0xef3ad182fbf0167c","status":"stable","name":"قرصان الريف","category":"بيكري","type":"Bakery","district":"Ar Rawdah","location":"4217 عبادة بن الصامت، الروضة، الرياض 13211 8687،","phone":"0569458760","rate":4.4,"reviews":12,"lat":24.7376827,"lng":46.775797399999995,"mapUrl":null,"owner":null,"matchedRule":"brand:qursan","businessStatus":null,"photoCount":null},{"id":"0x3e2f010605643273:0x8e3b30acd1cccdab","status":"stable","name":"قرصان نوره قرص عمر","category":"بيكري","type":"Bakery","district":"Ar Rawdah","location":"PQQH+C26, Ar Rawdah, Riyadh 13211","phone":"0569458760","rate":5.0,"reviews":1,"lat":24.738547,"lng":46.7775046,"mapUrl":null,"owner":null,"matchedRule":"brand:qursan","businessStatus":null,"photoCount":null},{"id":"0x3e2f010391486b79:0x5ee43c5098046061","status":"stable","name":"Bin Menqash","category":"محمصة","type":"Herb shop","district":"Hafsah Bint Omar","location":"PQQM+G45, Hafsah Bint Omar, Al Andalus, Riyadh 13212","phone":"0112300270","rate":3.9,"reviews":193,"lat":24.7387508,"lng":46.7828472,"mapUrl":null,"owner":null,"matchedRule":"brand:bin_menqash","businessStatus":null,"photoCount":null},{"id":"0x3e2f0135bac28295:0x2586b33f3493e401","status":"stable","name":"Rashid Sweets u0026 Bakers","category":"بيكري","type":"Bakery","district":"An Nasim Al Gharbi","location":"Saad Ibn Abi Waqqas, An Nasim Al Gharbi, Riyadh 14231","phone":"0503336484","rate":4.0,"reviews":105,"lat":24.7363121,"lng":46.812840099999995,"mapUrl":null,"owner":null,"matchedRule":"keyword:bakery","businessStatus":null,"photoCount":null},{"id":"0x3e2ee37e760c54df:0x989db8f56710acbf","status":"stable","name":"Shai mazboot foodtruck","category":"قهوة","type":"Coffee shop","district":"An Nakheel","location":"PJQ8+RWP, An Nakheel, Riyadh 12392","phone":null,"rate":4.7,"reviews":6,"lat":24.7392777,"lng":46.617247,"mapUrl":null,"owner":null,"matchedRule":"google_type:coffee shop","businessStatus":null,"photoCount":null},{"id":"0x3e2f018651a98e97:0xd00587b0fed60897","status":"stable","name":"Baskin Robbins","category":"حلا","type":"Ice cream shop","district":"Ar Rawdah","location":"2179 Abdulrahman Al Ghafeqi St, 7508, Ar Rawdah, 7508, Riyadh 13213","phone":"920013120","rate":4.0,"reviews":207,"lat":24.740871799999997,"lng":46.7506433,"mapUrl":null,"owner":null,"matchedRule":"brand:baskin_robbins","businessStatus":null,"photoCount":null},{"id":"0x3e2ee19a5fd0e547:0xac745816ad006121","status":"stable","name":"Mille Feuille Bakery","category":"بيكري","type":"Bakery","district":"At Tarif Al Jadid","location":"King Fahad Rd, At Tarif Al Jadid, Diriyah 13712","phone":"0552208900","rate":4.0,"reviews":388,"lat":24.7459995,"lng":46.579097399999995,"mapUrl":null,"owner":null,"matchedRule":"brand:mille_feuille","businessStatus":null,"photoCount":null},{"id":"0x3e2ee10a6421e2f1:0x4b8c680887faf2fc","status":"stable","name":"Wheat Basket Bakeries مخبز سلة القمح","category":"بيكري","type":"Bakery","district":"الفيصلية","location":"8355 الإمام فيصل ابن التركي، شارع آل مسيند - حي الفيصلية, At Tarif Al Jadid, Riyadh 13712","phone":"0114860655","rate":4.1,"reviews":239,"lat":24.746081999999998,"lng":46.571271599999996,"mapUrl":null,"owner":null,"matchedRule":"keyword:bakery","businessStatus":null,"photoCount":null},{"id":"0x3e2ee19dd1f11433:0x957d6df4242f794a","status":"stable","name":"Oasis candy sweets","category":"حلا","type":"Dessert shop","district":"Al Faisaliyah","location":"8359-8381 King Fahad Rd, Al Faisaliyah, Diriyah 13712","phone":"0556597252","rate":4.5,"reviews":454,"lat":24.7461317,"lng":46.579426999999995,"mapUrl":null,"owner":null,"matchedRule":"keyword:dessert","businessStatus":null,"photoCount":null},{"id":"0x3e2ee377e2d16947:0x803889c2bfd2135e","status":"stable","name":"Gemini Coffee","category":"قهوة","type":"Cafe","district":"An Nakheel","location":"8560 Az Zarqa, 4802, An Nakheel, 4802, Riyadh 12391","phone":null,"rate":3.8,"reviews":25,"lat":24.7465363,"lng":46.618263299999995,"mapUrl":null,"owner":null,"matchedRule":"keyword:coffee","businessStatus":null,"photoCount":null},{"id":"0x3e2f01e06813b8bd:0x24f28e71e7bdf7e1","status":"stable","name":"رمز التخفيض للحلويات والمواد الغذائية","category":"حلا","type":"Discount supermarket","district":"Abdulrahman Al Ghafeqi St","location":"Abdulrahman Al Ghafeqi St, Ar Rawdah, Riyadh 14216","phone":"0550022516","rate":3.8,"reviews":452,"lat":24.7445959,"lng":46.7565801,"mapUrl":null,"owner":null,"matchedRule":"keyword:dessert","businessStatus":null,"photoCount":null},{"id":"0x3e2faa1362562e35:0x34bd8939da9b5f80","status":"stable","name":"مخابز وحلويات المهنا","category":"بيكري","type":"Bakery","district":"النسيم","location":"6887 شارع ابي الأسود الدؤلي،, حي النسيم, Riyadh 14242","phone":"0112362770","rate":4.1,"reviews":532,"lat":24.744377099999998,"lng":46.8396913,"mapUrl":null,"owner":null,"matchedRule":"keyword:bakery","businessStatus":null,"photoCount":null},{"id":"0x3e2ee1ef4760911d:0xd85765f4e47ecf4c","status":"stable","name":"حلانا غير","category":"حلا","type":"Bakery","district":"Al Khalidiyah","location":"6666 King Abdulaziz Rd, Al Khalidiyah، RDAB4784، 4784, Diriyah 13713","phone":null,"rate":3.8,"reviews":6,"lat":24.7481856,"lng":46.570355899999996,"mapUrl":null,"owner":null,"matchedRule":"keyword:dessert","businessStatus":null,"photoCount":null},{"id":"0x3e2f01ae84bb81cd:0x49b508446783c2cd","status":"stable","name":"Baskin Robbins","category":"حلا","type":"Ice cream shop","district":"Al Andalus","location":"QQ2J+9GV, Prince Bandar Ibn Abd Al Aziz, Al Andalus, Riyadh 13212","phone":null,"rate":3.8,"reviews":159,"lat":24.7509752,"lng":46.7812893,"mapUrl":null,"owner":null,"matchedRule":"brand:baskin_robbins","businessStatus":null,"photoCount":null},{"id":"0x3e2f012f570de527:0x7f9e914051277dda","status":"stable","name":"مخبز الأوليين","category":"بيكري","type":"Bakery","district":"Hafsah Bint Omar","location":"Hafsah Bint Omar, An Nahdah, Riyadh 12211","phone":null,"rate":4.3,"reviews":26,"lat":24.751104599999998,"lng":46.803041,"mapUrl":null,"owner":null,"matchedRule":"keyword:bakery","businessStatus":null,"photoCount":null},{"id":"0x3e2f009cb45c0877:0xd23f544d632f6ff4","status":"stable","name":"كون زون","category":"حلا","type":"Ice cream shop","district":"An Nasim Al Gharbi","location":"PRXC+HH4, Hassan Ibn Thabet, An Nasim Al Gharbi, Riyadh 14232","phone":"0112650604","rate":4.0,"reviews":181,"lat":24.748877699999998,"lng":46.821446599999994,"mapUrl":null,"owner":null,"matchedRule":"brand:cone_zone","businessStatus":null,"photoCount":null},{"id":"0x3e2efdf8ac67299f:0x46effd6d71242dcb","status":"stable","name":"Baskin Robbins","category":"حلا","type":"Ice cream shop","district":"Al Mursalat","location":"8124 Muhammad Ibn Abdullah Ibn Abdullatif, Al Mursalat, 2729, Riyadh 12464","phone":null,"rate":4.2,"reviews":6,"lat":24.756004299999997,"lng":46.6839726,"mapUrl":null,"owner":null,"matchedRule":"brand:baskin_robbins","businessStatus":null,"photoCount":null},{"id":"0x3e2f038dc40f7cef:0xf40d7f20541b0d96","status":"stable","name":"ALHATAB BAKERY","category":"بيكري","type":"Bakery","district":"غير محدد","location":"7070 طريق عثمان بن عفان، النزهة الرياض 12472 4528","phone":"920002281","rate":4.3,"reviews":1071,"lat":24.7537843,"lng":46.7196029,"mapUrl":null,"owner":null,"matchedRule":"brand:al_hatab","businessStatus":null,"photoCount":null},{"id":"0x3e2f0183cb014923:0xfbb5c16db0234767","status":"stable","name":"أسواق و مخابز جنائن نجد","category":"بيكري","type":"Supermarket","district":"Salman Al Farsi","location":"Salman Al Farsi, An Nahdah, Riyadh 13221","phone":"0555636407","rate":4.0,"reviews":133,"lat":24.756487999999997,"lng":46.8155873,"mapUrl":null,"owner":null,"matchedRule":"keyword:bakery","businessStatus":null,"photoCount":null},{"id":"0x3e2ee36b18a5ed6b:0x58ab35a6b771adee","status":"stable","name":"Sloan’s ice cream","category":"حلا","type":"Ice cream shop","district":"Al Aqiq","location":"Al Aqiq, Riyadh 13511","phone":"0112473033","rate":3.9,"reviews":42,"lat":24.7575774,"lng":46.6297565,"mapUrl":null,"owner":null,"matchedRule":"keyword:dessert","businessStatus":null,"photoCount":null},{"id":"0x3e2ee2b81e4e8421:0x57df9d9265783bf2","status":"stable","name":"almamlaka sweets","category":"حلا","type":"Dessert shop","district":"Al Muruj","location":"شارع الامير تركي, Al Muruj, Riyadh 12281","phone":"0549101634","rate":3.7,"reviews":69,"lat":24.75725,"lng":46.6607389,"mapUrl":null,"owner":null,"matchedRule":"keyword:dessert","businessStatus":null,"photoCount":null},{"id":"0x3e2faa801cdd5da3:0x2e2d9f44a27f62f7","status":"stable","name":"Markets and bakeries Valley Food","category":"بيكري","type":"Supermarket","district":"Al Khair","location":"QR6G+855, Al Khair, An Nahdah, Riyadh 13222","phone":"0112265812","rate":3.9,"reviews":96,"lat":24.7607748,"lng":46.8254954,"mapUrl":null,"owner":null,"matchedRule":"keyword:bakery","businessStatus":null,"photoCount":null},{"id":"0x3e2faa7c5dd08c1b:0xad24c910b71246b3","status":"stable","name":"baskin robbins","category":"حلا","type":"Ice cream shop","district":"An Nahdah","location":"QR5J+JW2, An Nahdah, Riyadh 13222","phone":"920002344","rate":4.1,"reviews":100,"lat":24.7590061,"lng":46.8322624,"mapUrl":null,"owner":null,"matchedRule":"brand:baskin_robbins","businessStatus":null,"photoCount":null},{"id":"0x3e2faa7c5cfabc9f:0xeab112ff0c214e36","status":"stable","name":"SASCO Palm","category":"قهوة","type":"Coffee shop","district":"Kharis Branch Rd","location":"Kharis Branch Rd, An Nahdah, Riyadh 11564","phone":"920000581","rate":3.9,"reviews":32,"lat":24.759269,"lng":46.8321262,"mapUrl":null,"owner":null,"matchedRule":"google_type:coffee shop","businessStatus":null,"photoCount":null},{"id":"0x3e2efd9aa1300e45:0x16d4690b80c102a3","status":"stable","name":"Baskin Robins","category":"حلا","type":"Ice cream shop","district":"An Nuzhah","location":"QP87+7CW, An Nuzhah, Riyadh 12474","phone":"920013120","rate":4.1,"reviews":292,"lat":24.765740299999997,"lng":46.7135807,"mapUrl":null,"owner":null,"matchedRule":"brand:baskin_robbins","businessStatus":null,"photoCount":null},{"id":"0x3e2efd1e51a73401:0xfe2ded55a566f176","status":"stable","name":"فروز | FROZ","category":"حلا","type":"Ice cream shop","district":"Al Mughrizat","location":"Prince Muqrin Ibn Abdulaziz St, Al Mughrizat, Riyadh 12483","phone":"0541605522","rate":4.2,"reviews":199,"lat":24.7623094,"lng":46.722861599999995,"mapUrl":null,"owner":null,"matchedRule":"google_type:ice cream shop","businessStatus":null,"photoCount":null},{"id":"0x3e2f03d5aab1791b:0x8be7ae15e0ec6d28","status":"stable","name":"قلعة الحلوى حي القدس","category":"حلا","type":"Confectionery store","district":"القدس","location":"King Abdullah Rd, حي القدس، Riyadh 11461","phone":"0538003600","rate":4.0,"reviews":301,"lat":24.7623456,"lng":46.745856499999995,"mapUrl":null,"owner":null,"matchedRule":"keyword:dessert","businessStatus":null,"photoCount":null},{"id":"0x3e2f01958fece12b:0xa989c93797b90b47","status":"stable","name":"Patchi","category":"شوكولاتة","type":"Chocolate shop","district":"Al Quds","location":"Ibn Abdul Aziz Road, Al Quds، King Abdullah, Riyadh 13214","phone":"0112770704","rate":4.1,"reviews":364,"lat":24.761705199999998,"lng":46.7443989,"mapUrl":null,"owner":null,"matchedRule":"brand:patchi","businessStatus":null,"photoCount":null},{"id":"0x3e2efdfeac72f281:0xadac22e3ff4fa6ce","status":"stable","name":"M'oishî Ice cream","category":"حلا","type":"Ice cream shop","district":"Al Mughrizat","location":"7806 Al Imam Saud Ibn Abdul Aziz Branch Rd, Al Mughrizat, 2433, Riyadh 12483","phone":"0554928993","rate":3.8,"reviews":149,"lat":24.7684341,"lng":46.7164374,"mapUrl":null,"owner":null,"matchedRule":"keyword:dessert","businessStatus":null,"photoCount":null},{"id":"0x3e2f01bc62c0c1a7:0xa582e91c5ee1b870","status":"stable","name":"مخبز نوره الشهرى","category":"بيكري","type":"Bakery","district":"Abi Said Al Khadri","location":"QQ9R+5G3, Abi Said Al Khadri, Al Khaleej, Riyadh 13223","phone":null,"rate":4.3,"reviews":29,"lat":24.767885399999997,"lng":46.791299699999996,"mapUrl":null,"owner":null,"matchedRule":"keyword:bakery","businessStatus":null,"photoCount":null},{"id":"0x3e2efd91ab7daa5b:0xb6af5e9f1a22c8eb","status":"stable","name":"Anoosh","category":"شوكولاتة","type":"Chocolate shop","district":"غير محدد","location":"Al Imam Saud Ibn Abdul Aziz Branch Rd, حي،, Riyadh 12485","phone":"0594017052","rate":4.2,"reviews":892,"lat":24.7724402,"lng":46.720918999999995,"mapUrl":null,"owner":null,"matchedRule":"brand:anoosh","businessStatus":null,"photoCount":null},{"id":"0x3e2efd9182c7e743:0xb777d9c50903d14c","status":"stable","name":"باسكن روبنز","category":"حلا","type":"Ice cream shop","district":"Al Izdihar","location":"3876 Ibn Aram, 6547, Al Izdihar, Riyadh 12486","phone":"920013120","rate":3.4,"reviews":100,"lat":24.7734401,"lng":46.722949899999996,"mapUrl":null,"owner":null,"matchedRule":"brand:baskin_robbins","businessStatus":null,"photoCount":null},{"id":"0x3e2ee14f821008a7:0x83de8084108ff86a","status":"stable","name":"أسواق ومخابز سلة البساتين","category":"بيكري","type":"Grocery store","district":"Hittin","location":"طريق الامام سعود بن فيصل، حطين، الرياض 13518, Riyadh 11121","phone":"0532898381","rate":4.1,"reviews":708,"lat":24.777666699999997,"lng":46.5814197,"mapUrl":null,"owner":null,"matchedRule":"keyword:bakery","businessStatus":null,"photoCount":null},{"id":"0x3e2ee3fa24b6e8b3:0xf3309264b3fd5617","status":"stable","name":"سمسم","category":"بيكري","type":"Bakery","district":"Hittin","location":"4072 طريق الأمير محمد بن سعد بن عبدالعزيز، 7752 Riyadh 13516, 7752 طريق الأمير محمد بن سعد بن عبدالعزيز، حطين، 4072, Riyadh 13516","phone":"0559746675","rate":4.1,"reviews":105,"lat":24.7779246,"lng":46.6165167,"mapUrl":null,"owner":null,"matchedRule":"google_type:bakery","businessStatus":null,"photoCount":null},{"id":"0x3e2efd23880778c9:0x1f4f2f0df31a36ca","status":"stable","name":"Jareer Sweets - Kabbani","category":"حلا","type":"Dessert shop","district":"Abi Bakr As Siddiq Rd","location":"Abi Bakr As Siddiq Rd, An Nafal, Riyadh 13312","phone":"0112108101","rate":3.9,"reviews":396,"lat":24.7795824,"lng":46.6847863,"mapUrl":null,"owner":null,"matchedRule":"brand:jareer_sweets","businessStatus":null,"photoCount":null},{"id":"0x3e2fab059f3aa73f:0xac733d40af426cc3","status":"stable","name":"مخابز سمسم","category":"بيكري","type":"Bakery","district":"المعيزيلة","location":"7143 البسالة، 3175، حي المعيزيلة، الرياض 13231،","phone":null,"rate":4.2,"reviews":16,"lat":24.775302099999998,"lng":46.8366633,"mapUrl":null,"owner":null,"matchedRule":"keyword:bakery","businessStatus":null,"photoCount":null},{"id":"0x3e2ee389b7164009:0xfdad1d37be8e4db5","status":"stable","name":"Sucre de Nada - سكر الندى","category":"بيكري","type":"Bakery","district":"Al Malqa","location":"Al Imam Saud Ibn Faysal Rd, Al Malqa, Riyadh 13522","phone":"0550134466","rate":4.1,"reviews":459,"lat":24.7825235,"lng":46.6031249,"mapUrl":null,"owner":null,"matchedRule":"google_type:bakery","businessStatus":null,"photoCount":null},{"id":"0x3e2ee3092e0832c9:0x57f8231d52c547cc","status":"stable","name":"لوازم البراري للرحلات البرية","category":"حلا","type":"Camping store","district":"Al Aqiq","location":"Ibrahim Ibn Naghmish, Al Aqiq, Riyadh 13515","phone":"0552700999","rate":3.9,"reviews":4953,"lat":24.7811177,"lng":46.636168399999995,"mapUrl":null,"owner":null,"matchedRule":"keyword:dessert","businessStatus":null,"photoCount":null},{"id":"0x3e2eff5d0226975b:0xb85c9b27dcb39c13","status":"stable","name":"أسواق ومخابز سلة زاد الغذاء","category":"بيكري","type":"Supermarket","district":"Al Hamra","location":"3649 7286 Al Dawud, Al Hamra, Riyadh 13217","phone":"0112402117","rate":4.1,"reviews":189,"lat":24.7793012,"lng":46.764817099999995,"mapUrl":null,"owner":null,"matchedRule":"keyword:bakery","businessStatus":null,"photoCount":null},{"id":"0x3e2efdcaa1e18561:0x4b6a0e7146869e7d","status":"stable","name":"فطائر هشه","category":"بيكري","type":"Pancake restaurant","district":"Wadi As Sarh","location":"Wadi As Sarh, Al Wadi, Riyadh 13313","phone":"0591992244","rate":4.5,"reviews":112,"lat":24.7849272,"lng":46.6945294,"mapUrl":null,"owner":null,"matchedRule":"keyword:bakery","businessStatus":null,"photoCount":null},{"id":"0x3e2efd57d30194f5:0x473922ae576c1464","status":"stable","name":"بوفيه","category":"قهوة","type":"Cafeteria","district":"Al Izdihar","location":"QPM7+RQ5, Al Izdihar, Riyadh 12488","phone":"0502281933","rate":4.3,"reviews":21,"lat":24.7845099,"lng":46.714483699999995,"mapUrl":null,"owner":null,"matchedRule":"google_type:cafeteria","businessStatus":null,"photoCount":null},{"id":"0x3e2ee387418e9459:0xa2f44bc2006759f9","status":"stable","name":"Villa Beirut","category":"قهوة","type":"Coffee shop","district":"Ar Rabi","location":"King Abdulaziz Rd, Ar Rabi, Riyadh 13316","phone":"0534306070","rate":4.1,"reviews":965,"lat":24.789469099999998,"lng":46.6591422,"mapUrl":null,"owner":null,"matchedRule":"google_type:coffee shop","businessStatus":null,"photoCount":null},{"id":"0x3e2f001faf26a3d7:0xfd7efbb102149173","status":"stable","name":"Starbucks","category":"قهوة","type":"Coffee shop","district":"Silver Plaza","location":"Silver Plaza, Al Khaleej, Riyadh 13224","phone":"0115111925","rate":3.9,"reviews":2178,"lat":24.789944199999997,"lng":46.807881099999996,"mapUrl":null,"owner":null,"matchedRule":"brand:starbucks","businessStatus":null,"photoCount":null},{"id":"0x3e2f001e509897b1:0xa0293b015ca5e486","status":"stable","name":"Dunkin' - دانكن","category":"دونات","type":"Coffee shop","district":"Al Khaleej","location":"Al Khaleej, Riyadh 13224","phone":"8001288999","rate":4.1,"reviews":484,"lat":24.7902167,"lng":46.808387599999996,"mapUrl":null,"owner":null,"matchedRule":"brand:dunkin","businessStatus":null,"photoCount":null},{"id":"0x3e2fab0006cf43d9:0x1de0bc05908f1795","status":"stable","name":"شاهي رزه","category":"شاهي","type":"Coffee shop","district":"Al Maizilah","location":"QRQM+J75, Al Maizilah, Riyadh 13233","phone":null,"rate":5.0,"reviews":5,"lat":24.7890226,"lng":46.833230199999996,"mapUrl":null,"owner":null,"matchedRule":"keyword:tea","businessStatus":null,"photoCount":null},{"id":"0x3e2fabb523489581:0x1af1cc2822185fb3","status":"stable","name":"بايد bid coffee","category":"قهوة","type":"Coffee shop","district":"غير محدد","location":"RFMA4044, 6260 Al Cheikh Issa Ibn Salman Al Khalifah, 4044، Riyadh 13235","phone":null,"rate":4.6,"reviews":67,"lat":24.7890478,"lng":46.829146099999996,"mapUrl":null,"owner":null,"matchedRule":"keyword:coffee","businessStatus":null,"photoCount":null},{"id":"0x3e2fab1d691f0993:0xffec5a74e0df59d4","status":"stable","name":"صهيل نجد","category":"شاهي","type":"Tea house","district":"Al Maizilah","location":"QRRM+9F7، شارع الشيخ عيسى بن سلمان آل خليفة, Al Maizilah, Riyadh 13233","phone":"0508903149","rate":5.0,"reviews":10,"lat":24.7909126,"lng":46.8336648,"mapUrl":null,"owner":null,"matchedRule":"google_type:tea house","businessStatus":null,"photoCount":null},{"id":"0x3e2ee316a6b449bd:0x81bf79ffc13a8737","status":"stable","name":"شاي الداهيه","category":"شاهي","type":"Coffee shop","district":"Al Malqa","location":"QJW5+48X, Al Malqa, Riyadh 13521","phone":"0533991830","rate":5.0,"reviews":13,"lat":24.7953506,"lng":46.6083749,"mapUrl":null,"owner":null,"matchedRule":"keyword:tea","businessStatus":null,"photoCount":null},{"id":"0x3e2ee3a8ab12ed61:0x9a403698676a4c52","status":"stable","name":"SND Truck/سند ترك","category":"قهوة","type":"Coffee shop","district":"Al Malqa","location":"Al Malqa, Riyadh 13521","phone":"0544995503","rate":5.0,"reviews":43,"lat":24.795254099999998,"lng":46.608393299999996,"mapUrl":null,"owner":null,"matchedRule":"google_type:coffee shop","businessStatus":null,"photoCount":null},{"id":"0x3e2ee32279e7b7df:0xa1a60439824dfee1","status":"stable","name":"bez obareq","category":"قهوة","type":"Coffee shop","district":"rabie","location":"rabie, Ar Rabi, Riyadh 55689","phone":"0535517601","rate":4.9,"reviews":489,"lat":24.7943006,"lng":46.6569192,"mapUrl":null,"owner":null,"matchedRule":"google_type:coffee shop","businessStatus":null,"photoCount":null},{"id":"0x3e2efdf9231b5597:0x70b63d689ba92b39","status":"stable","name":"u200fAl Hatab Bakery","category":"بيكري","type":"Bakery","district":"الفلاح","location":"7203 طريق عثمان بن عفان، الفلاح، الرياض 13314 2340،, Riyadh 13314","phone":"920002281","rate":4.2,"reviews":545,"lat":24.795955499999998,"lng":46.6995475,"mapUrl":null,"owner":null,"matchedRule":"keyword:bakery","businessStatus":null,"photoCount":null},{"id":"0x3e2efd9b28fb2881:0x1c4a07ef7c7cf9d4","status":"stable","name":"قرصان","category":"بيكري","type":"Bakery","district":"غرناطة","location":"غرناطة شارع أبي جعفر المنصور، حي غرناطة،, Riyadh 13242","phone":"0581758891","rate":4.2,"reviews":178,"lat":24.7938565,"lng":46.7461699,"mapUrl":null,"owner":null,"matchedRule":"brand:qursan","businessStatus":null,"photoCount":null},{"id":"0x3e2faba0d5d85b19:0x15a018b648fc7599","status":"stable","name":"ADNOC Service Station | Al Nahr Street (2061)","category":"قهوة","type":"Coffee shop","district":"Al Nahr","location":"QVVH+RP2, Al Nahr, Al Nadwa, Riyadh 14813","phone":"0118122255","rate":3.0,"reviews":1,"lat":24.794562499999998,"lng":46.8793125,"mapUrl":null,"owner":null,"matchedRule":"google_type:coffee shop","businessStatus":null,"photoCount":null},{"id":"0x3e2ee4050cc697f9:0x42d6be9280694578","status":"stable","name":"Jareer Sweets - Kabbani","category":"حلا","type":"Dessert shop","district":"Al Malqa","location":"Anas Ibn Malik Rd, حي الملقا، Riyadh 13525","phone":"0112368151","rate":3.8,"reviews":183,"lat":24.801817999999997,"lng":46.601728099999995,"mapUrl":null,"owner":null,"matchedRule":"brand:jareer_sweets","businessStatus":null,"photoCount":null},{"id":"0x3e2ee34a08834bed:0xc49d4a837d20c460","status":"stable","name":"مخبز تميس - دلال المطيري","category":"بيكري","type":"Bakery","district":"Ar Rabi","location":"QMX8+FH2, Ar Rabi, Riyadh 13316","phone":null,"rate":3.8,"reviews":171,"lat":24.798637199999998,"lng":46.6663819,"mapUrl":null,"owner":null,"matchedRule":"brand:tamees","businessStatus":null,"photoCount":null},{"id":"0x3e2eff6c87b114af:0x53cd007b0bac5a44","status":"stable","name":"لقيمات ماما لطيفة","category":"حلا","type":"Bakery","district":"الفرعى","location":"RFYA4512، 4512 Imam Abdullah Ibn Saud Ibn Abdulaziz Rd, الفرعى،، Riyadh 13243","phone":"0568002448","rate":3.5,"reviews":127,"lat":24.7986433,"lng":46.7830078,"mapUrl":null,"owner":null,"matchedRule":"keyword:dessert","businessStatus":null,"photoCount":null},{"id":"0x3e2effe7832ab48f:0xe7421e8652d769d8","status":"stable","name":"سوبرماركت ومخابز أواصر الجزيرة","category":"بيكري","type":"Supermarket","district":"Ishbiliyah","location":"QRX4+GJF, Najah Street, Ishbiliyah, Riyadh 13226","phone":null,"rate":3.9,"reviews":446,"lat":24.798803499999998,"lng":46.806532499999996,"mapUrl":null,"owner":null,"matchedRule":"keyword:bakery","businessStatus":null,"photoCount":null},{"id":"0x3e2eff92c065f12b:0x4b23a37cad542466","status":"stable","name":"NEAT TRIM صالون حلاقة","category":"حلا","type":"Barber shop","district":"Qalaat Al Foustat","location":"Qalaat Al Foustat, Ishbiliyah, Riyadh 13226","phone":"0592066630","rate":4.9,"reviews":62,"lat":24.7995597,"lng":46.8140668,"mapUrl":null,"owner":null,"matchedRule":"keyword:dessert","businessStatus":null,"photoCount":null},{"id":"0x3e2e55d1b1f13589:0x820c6b37a6cc6b19","status":"stable","name":"اسواق ومخابز دوحة الجنوب","category":"بيكري","type":"Discount supermarket","district":"Al Janadiriyah","location":"Ash Shaikh Khalifa Ibn Hamad Althani Rd, Al Janadiriyah, Riyadh 14727","phone":"0507627932","rate":3.9,"reviews":11,"lat":24.8006349,"lng":46.8596009,"mapUrl":null,"owner":null,"matchedRule":"keyword:bakery","businessStatus":null,"photoCount":null},{"id":"0x3e2fabd1fcd4f6c9:0x51dc8b1bc73d9f9e","status":"stable","name":"حشوة","category":"بيكري","type":"Pancake restaurant","district":"Al Janadiriyah","location":"Ash Shaikh Khalifa Ibn Hamad Althani Rd, Al Janadiriyah, Riyadh 13611","phone":"0506997663","rate":4.7,"reviews":120,"lat":24.800358499999998,"lng":46.859353299999995,"mapUrl":null,"owner":null,"matchedRule":"google_type:pancake restaurant","businessStatus":null,"photoCount":null},{"id":"0x3e2efceb05497cf1:0x17a3c4abb8ae04a9","status":"stable","name":"Baskin Robbins","category":"حلا","type":"Ice cream shop","district":"An Nada","location":"RM4V+F43, An Nada, Riyadh 13317","phone":null,"rate":3.8,"reviews":104,"lat":24.8061254,"lng":46.6927926,"mapUrl":null,"owner":null,"matchedRule":"brand:baskin_robbins","businessStatus":null,"photoCount":null},{"id":"0x4074075e986c9f4f:0xcb5791a2a70f646","status":"stable","name":"اسواق ومخابز ركن التخفيض","category":"بيكري","type":"Supermarket","district":"Abi Jafar Al Mansur","location":"Abi Jafar Al Mansur, Al Yarmuk, Riyadh 13251","phone":"0531270580","rate":3.8,"reviews":23,"lat":24.8056926,"lng":46.774251799999995,"mapUrl":null,"owner":null,"matchedRule":"keyword:bakery","businessStatus":null,"photoCount":null},{"id":"0x3e2fab4f3a5b3719:0x125fdd4148eca60d","status":"stable","name":"غزل البنات للحلويات المستورده النظيم","category":"حلا","type":"Supermarket","district":"Al Nadwa","location":"شارع المحيط, Al Nadwa, Riyadh 14813","phone":"0510657508","rate":4.0,"reviews":77,"lat":24.803582799999997,"lng":46.886561199999996,"mapUrl":null,"owner":null,"matchedRule":"keyword:dessert","businessStatus":null,"photoCount":null},{"id":"0x3e2ee5b83ebd6b4d:0x8f676e9a6839ad12","status":"stable","name":"طاحون مؤسسة شيخة","category":"بيكري","type":"Bakery","district":"As Sahafah","location":"RJ5P+4PG, شارع متفرع من طريق أنس بن مالك، حي الصحافة،, Riyadh 11564","phone":null,"rate":3.8,"reviews":12,"lat":24.807822599999998,"lng":46.636828799999996,"mapUrl":null,"owner":null,"matchedRule":"google_type:bakery","businessStatus":null,"photoCount":null},{"id":"0x3e2ee34d41f363c9:0x74bcc6ddd28fb3d5","status":"stable","name":"Baskin Robbins","category":"حلا","type":"Ice cream shop","district":"Abi Bakr As Siddiq Branch Rd","location":"RM59+8JG, Abi Bakr As Siddiq Branch Rd, Ar Rabi, Riyadh 13316","phone":null,"rate":3.7,"reviews":68,"lat":24.808304,"lng":46.669078299999995,"mapUrl":null,"owner":null,"matchedRule":"brand:baskin_robbins","businessStatus":null,"photoCount":null},{"id":"0x3e2efd003873f333:0x17a1b5995323b25a","status":"stable","name":"باسكن روبنز","category":"حلا","type":"Ice cream shop","district":"Qurtubah","location":"2580 خالد بن الوليد, Qurtubah، 6739, Riyadh 13245","phone":null,"rate":null,"reviews":null,"lat":24.806983499999998,"lng":46.7374005,"mapUrl":null,"owner":null,"matchedRule":"brand:baskin_robbins","businessStatus":null,"photoCount":null},{"id":"0x3e2eff4a10627219:0x263e4c142f3d8e8d","status":"stable","name":"أسواق ومخابز سمو أسيا","category":"بيكري","type":"Supermarket","district":"Al Munsiyah","location":"7205 Al Basala، المونسية، RURD2953, 2953, Riyadh 13254","phone":"0544699964","rate":4.4,"reviews":13,"lat":24.8081568,"lng":46.801752799999996,"mapUrl":null,"owner":null,"matchedRule":"keyword:bakery","businessStatus":null,"photoCount":null},{"id":"0x3e2efff0952177f5:0xa53b5df254aac567","status":"stable","name":"اسواق ومخابز الحسيني","category":"بيكري","type":"Supermarket","district":"Al Qadisiyyah","location":"Imam Abdullah Ibn Saud Ibn Abdulaziz Rd, Al Qadisiyyah, Riyadh 13236","phone":"0566211642","rate":4.0,"reviews":14,"lat":24.8110622,"lng":46.8140688,"mapUrl":null,"owner":null,"matchedRule":"keyword:bakery","businessStatus":null,"photoCount":null},{"id":"0x3e2fab00778ca8f5:0xc98d9b3a5ea4a562","status":"stable","name":"حلويات هاجر المخفضة","category":"حلا","type":"Convenience store","district":"Al Nadwa","location":"Al Nadwa, Riyadh 14813","phone":"0530645907","rate":4.3,"reviews":3,"lat":24.808232399999998,"lng":46.8789369,"mapUrl":null,"owner":null,"matchedRule":"keyword:dessert","businessStatus":null,"photoCount":null},{"id":"0x3e2fab3e54d05aa1:0xbd63b8796b833358","status":"stable","name":"خبز صاج","category":"بيكري","type":"Bakery","district":"Al Nadwa","location":"RV5X+4MP, Al Nadwa, Riyadh 14817","phone":null,"rate":3.9,"reviews":68,"lat":24.8078406,"lng":46.8991944,"mapUrl":null,"owner":null,"matchedRule":"keyword:bakery","businessStatus":null,"photoCount":null},{"id":"0x3e2fab5e6190adb1:0xd559d6433428c75","status":"stable","name":"مخبز","category":"بيكري","type":"Bakery","district":"Al Nadwa","location":"RV5X+2HQ, Al Nadwa, Riyadh 14817","phone":null,"rate":4.1,"reviews":17,"lat":24.8075896,"lng":46.898995899999996,"mapUrl":null,"owner":null,"matchedRule":"keyword:bakery","businessStatus":null,"photoCount":null},{"id":"0x3e2efc3288ff2417:0xe76a94cbc49e972c","status":"stable","name":"Baskin Robbins","category":"حلا","type":"Ice cream shop","district":"Qurtubah","location":"RP6M+5Q5, Said Ibn Zayd, Qurtubah, Riyadh 13245","phone":"920013120","rate":3.6,"reviews":124,"lat":24.810386599999998,"lng":46.7344863,"mapUrl":null,"owner":null,"matchedRule":"brand:baskin_robbins","businessStatus":null,"photoCount":null},{"id":"0x3e2effae718fc551:0xbd62bbf96ce08249","status":"stable","name":"Munch Bakeryu200e","category":"بيكري","type":"Bakery","district":"Dammam Branch Rd","location":"Dammam Branch Rd, Yarmouk district, Riyadh","phone":"920015010","rate":4.4,"reviews":218,"lat":24.8152525,"lng":46.7774182,"mapUrl":null,"owner":null,"matchedRule":"keyword:bakery","businessStatus":null,"photoCount":null},{"id":"0x3e2eff16c17a7669:0xbd0e91ced6408822","status":"stable","name":"اسواق ومخابز سهول نجد","category":"بيكري","type":"Supermarket","district":"Al Qadisiyyah","location":"Imam Abdullah Ibn Saud Ibn Abdulaziz Rd, Al Qadisiyyah, Riyadh 13236","phone":null,"rate":3.7,"reviews":155,"lat":24.810955099999997,"lng":46.8142548,"mapUrl":null,"owner":null,"matchedRule":"keyword:bakery","businessStatus":null,"photoCount":null},{"id":"0x3e2ee5b8261dd9cd:0xf28b3a8af0504f3e","status":"stable","name":"Mille Feuille Bakery Malqa","category":"بيكري","type":"Bakery","district":"Al Malqa","location":"King Salman Bin Abdulaziz Rd, Al Malqa, Riyadh 13525","phone":"0501237373","rate":3.5,"reviews":40,"lat":24.8183611,"lng":46.5951667,"mapUrl":null,"owner":null,"matchedRule":"brand:mille_feuille","businessStatus":null,"photoCount":null},{"id":"0x3e2efe54111f499f:0xd9acec7a79a30485","status":"stable","name":"Saadeddin pastry","category":"بيكري","type":"Candy store","district":"Al Yarmuk","location":"7976 Marqan, اليرموك،، 2666، Riyadh 13251","phone":"920017070","rate":3.9,"reviews":518,"lat":24.8170489,"lng":46.7822038,"mapUrl":null,"owner":null,"matchedRule":"brand:saadeddin","businessStatus":null,"photoCount":null},{"id":"0x3e2eff651bea0443:0x972d11ae8ad8ef00","status":"stable","name":"اسواق ومخابز اليرموك","category":"بيكري","type":"Supermarket","district":"ابي جعفر","location":"RQ8X+983، ابي جعفر, Al Yarmuk, Riyadh 13251","phone":"0502842824","rate":2.4,"reviews":50,"lat":24.8158855,"lng":46.798286399999995,"mapUrl":null,"owner":null,"matchedRule":"keyword:bakery","businessStatus":null,"photoCount":null},{"id":"0x3e2eff65ee151d19:0x92c5ecacbdbf380d","status":"stable","name":"Office","category":"حلا","type":"Dessert shop","district":"Qurtubah","location":"شارع الحسين بن علي, Qurtubah, Riyadh 33333","phone":null,"rate":4.5,"reviews":4,"lat":24.8250466,"lng":46.7487931,"mapUrl":null,"owner":null,"matchedRule":"google_type:dessert shop","businessStatus":null,"photoCount":null},{"id":"0x3e2efc2007b67b37:0xdb5bbfadaef3f961","status":"stable","name":"أسواق و مخابز ثمار جناين","category":"بيكري","type":"Supermarket","district":"Qurtubah","location":"Al Cheikh Hasan Ibn Hussein Ibn Ali, Qurtubah, Riyadh 13248","phone":"0500263241","rate":4.1,"reviews":818,"lat":24.8271035,"lng":46.7476469,"mapUrl":null,"owner":null,"matchedRule":"keyword:bakery","businessStatus":null,"photoCount":null},{"id":"0x3e2eff1c26e0f0c5:0x88cce471d8b590e0","status":"stable","name":"أسواق ومخابز سدرة الوادي","category":"بيكري","type":"Produce market","district":"Al Rashd","location":"Al Rashd, Al Munsiyah, Riyadh 13246","phone":null,"rate":4.0,"reviews":65,"lat":24.825385999999998,"lng":46.7588371,"mapUrl":null,"owner":null,"matchedRule":"keyword:bakery","businessStatus":null,"photoCount":null},{"id":"0x3e2eff0028780c95:0xe72fa75ba8f9a3ba","status":"stable","name":"سابروسو","category":"بيكري","type":"Bakery","district":"Mohammed Al Barqi","location":"RQGH+W62, Mohammed Al Barqi, Al Munsiyah, Riyadh 13253","phone":"0112791991","rate":3.7,"reviews":3,"lat":24.8272585,"lng":46.778011199999995,"mapUrl":null,"owner":null,"matchedRule":"google_type:bakery","businessStatus":null,"photoCount":null},{"id":"0x3e2effc9c2a0d76b:0x1419784ce16e9c2f","status":"stable","name":"خلية و جبنة","category":"بيكري","type":"Bakery","district":"Al Munsiyah","location":"RQGH+V8R, Al Munsiyah, Riyadh 13253","phone":"0537299433","rate":4.2,"reviews":138,"lat":24.8272914,"lng":46.7782664,"mapUrl":null,"owner":null,"matchedRule":"google_type:bakery","businessStatus":null,"photoCount":null},{"id":"0x3e2ee5dffd83ed8f:0x3ef300b21aab20d0","status":"stable","name":"شارك كافيه | Sharik Cafeu200f","category":"قهوة","type":"Coworking space","district":"Al Aarid","location":"RJJG+XPC، العارض، الرياض 13331،, Riyadh 13331","phone":null,"rate":4.5,"reviews":252,"lat":24.832485199999997,"lng":46.6267858,"mapUrl":null,"owner":null,"matchedRule":"keyword:coffee","businessStatus":null,"photoCount":null},{"id":"0x3e2efb0df4fc7bcb:0x1fc69a2e6e83fb6a","status":"stable","name":"Baskin Robbins","category":"حلا","type":"Ice cream shop","district":"An Narjis","location":"RMMJ+57Q, An Narjis, Riyadh 13324","phone":null,"rate":2.4,"reviews":29,"lat":24.832940699999998,"lng":46.6806698,"mapUrl":null,"owner":null,"matchedRule":"brand:baskin_robbins","businessStatus":null,"photoCount":null},{"id":"0x3e2efc1fef160fd5:0xf0f23ec7554683f6","status":"stable","name":"اسواق و مخابز حديقة نجد المركزية","category":"بيكري","type":"Grocery store","district":"غير محدد","location":"Al Cheikh Hasan Ibn Hussein Ibn Ali, شارع شيخ, Riyadh","phone":"0557438437","rate":3.9,"reviews":154,"lat":24.8283253,"lng":46.7471165,"mapUrl":null,"owner":null,"matchedRule":"keyword:bakery","businessStatus":null,"photoCount":null},{"id":"0x3e2eff5155c64129:0xe35ce717c9de356c","status":"stable","name":"جناين الخير للحلويات المستوردة 4 حي الرمال","category":"حلا","type":"Candy store","district":"Al Sahel Valley","location":"Al Sahel Valley, Ar Rimal, Riyadh 13263","phone":"0555119468","rate":4.2,"reviews":162,"lat":24.833711299999997,"lng":46.810490699999995,"mapUrl":null,"owner":null,"matchedRule":"keyword:dessert","businessStatus":null,"photoCount":null},{"id":"0x3e2ee5003720327b:0x51b46dbbae9dd58d","status":"stable","name":"Ghandoura","category":"قهوة","type":"Coffee shop","district":"Alyasmin","location":"الأمير عبدالعزيز بن محمد بن غياف, Alyasmin, Riyadh 13326","phone":"0550400704","rate":3.9,"reviews":886,"lat":24.835815099999998,"lng":46.6444385,"mapUrl":null,"owner":null,"matchedRule":"google_type:coffee shop","businessStatus":null,"photoCount":null},{"id":"0x3e2eff6bee7be919:0x4451baa06a09a80a","status":"stable","name":"باسكن روبنز","category":"حلا","type":"Ice cream shop","district":"Ar Rimal","location":"طريق الأمير محمد بن سلمان بن عبدالعزيز، الرياض 13256،، الرمال، الرياض 13256،","phone":null,"rate":3.6,"reviews":20,"lat":24.8404642,"lng":46.787065999999996,"mapUrl":null,"owner":null,"matchedRule":"brand:baskin_robbins","businessStatus":null,"photoCount":null},{"id":"0x3e2e55d24cfd822d:0xab8cf57e6647b727","status":"stable","name":"BREAK COFFEE- بريك كافيه","category":"قهوة","type":"Coffee shop","district":"Ibrahim Al Burhan","location":"حي, Ibrahim Al Burhan, Al Janadriyyah, Riyadh 13613","phone":"0548957569","rate":4.3,"reviews":23,"lat":24.839403299999997,"lng":46.8737515,"mapUrl":null,"owner":null,"matchedRule":"keyword:coffee","businessStatus":null,"photoCount":null},{"id":"0x3e2e55228717e595:0x356a93b1493195a7","status":"stable","name":"باسكن روبنز","category":"حلا","type":"Ice cream shop","district":"Ar Rimal","location":"7670 علي البجادي، حي الرمال، الرياض 13263 4321،","phone":null,"rate":4.2,"reviews":54,"lat":24.8449845,"lng":46.825891999999996,"mapUrl":null,"owner":null,"matchedRule":"brand:baskin_robbins","businessStatus":null,"photoCount":null},{"id":"0x3e2e558584a94d0d:0xd0d61595925ec013","status":"stable","name":"Bebeka Specialty Coffee","category":"قهوة","type":"Coffee shop","district":"السنبل","location":"السنبل, Al Janadiriyah, Riyadh 13615","phone":"0551832445","rate":4.7,"reviews":234,"lat":24.846229599999997,"lng":46.8764506,"mapUrl":null,"owner":null,"matchedRule":"keyword:coffee","businessStatus":null,"photoCount":null},{"id":"0x3e2e55874511240d:0xb926a3a4525c3d3","status":"stable","name":"Dunkin Donuts","category":"دونات","type":"Coffee shop","district":"الجنادرية","location":"RTJB3657، 3657 الصياد، 6849، حي الجنادرية،, Riyadh 13615،","phone":null,"rate":3.6,"reviews":259,"lat":24.8462833,"lng":46.8764835,"mapUrl":null,"owner":null,"matchedRule":"brand:dunkin","businessStatus":null,"photoCount":null},{"id":"0x3e2ee566601a2995:0xfb164187edfa5b5a","status":"stable","name":"شاي الياسمين","category":"شاهي","type":"Coffee shop","district":"Al Aarid","location":"4373 King Abdulaziz Rd, Al Aarid، حي, 8884, Riyadh 13331","phone":null,"rate":4.7,"reviews":18,"lat":24.8502288,"lng":46.62766,"mapUrl":null,"owner":null,"matchedRule":"keyword:tea","businessStatus":null,"photoCount":null},{"id":"0x3e2eff5f93e6847d:0x5f18165b9c5299b2","status":"stable","name":"أسواق ومخابز لزوم للمواد الغذائية","category":"بيكري","type":"Discount supermarket","district":"Ar Rimal","location":"RQXJ+6JM, Ar Rimal, Riyadh 13256","phone":"0597627559","rate":3.9,"reviews":33,"lat":24.84809,"lng":46.781538999999995,"mapUrl":null,"owner":null,"matchedRule":"keyword:bakery","businessStatus":null,"photoCount":null},{"id":"0x3e2ee54264951db1:0x5258a1c8394e247f","status":"stable","name":"Top100","category":"حلا","type":"Candy store","district":"Abi Bakr As Siddiq Rd","location":"Abi Bakr As Siddiq Rd, An Narjis, Riyadh 13333","phone":"0552121957","rate":3.6,"reviews":119,"lat":24.8524243,"lng":46.6489926,"mapUrl":null,"owner":null,"matchedRule":"brand:top100","businessStatus":null,"photoCount":null},{"id":"0x3e2ee5c83264fb5d:0xe9fdb5bacc986d44","status":"stable","name":"Mamola","category":"حلا","type":"Confectionery store","district":"Abi Bakr As Siddiq Rd","location":"Abi Bakr As Siddiq Rd, An Narjis, Riyadh 13333","phone":"0550293233","rate":4.2,"reviews":648,"lat":24.8522598,"lng":46.6490442,"mapUrl":null,"owner":null,"matchedRule":"brand:mamola","businessStatus":null,"photoCount":null},{"id":"0x3e2effdad458f9ed:0x40c9a0ebd61c2cc3","status":"stable","name":"استراحة الشماتين","category":"قهوة","type":"Coffee shop","district":"Ar Rimal","location":"3470 عباس الحسيني، الرمال، الرياض 13266 6669،","phone":null,"rate":3.0,"reviews":2,"lat":24.8526983,"lng":46.8090948,"mapUrl":null,"owner":null,"matchedRule":"google_type:coffee shop","businessStatus":null,"photoCount":null},{"id":"0x3e2eff0bb240d87f:0xa1d4f3f2192eb71d","status":"stable","name":"Abo Mgbal Istraha","category":"قهوة","type":"Cafe","district":"Ar Rimal","location":"VR35+4FM, Ar Rimal, Riyadh 13254","phone":"0551927560","rate":4.0,"reviews":37,"lat":24.852830899999997,"lng":46.8086693,"mapUrl":null,"owner":null,"matchedRule":"google_type:cafe","businessStatus":null,"photoCount":null},{"id":"0x3e2ee5305fb1c275:0x92054d7bcbe5ed67","status":"stable","name":"saraya café","category":"قهوة","type":"Cafe","district":"Al Aarid","location":"Prince Saud Ibn Abdullah Ibn Jalawi, Al Aarid, Riyadh 13335","phone":null,"rate":3.9,"reviews":7,"lat":24.857854,"lng":46.640369,"mapUrl":null,"owner":null,"matchedRule":"keyword:coffee","businessStatus":null,"photoCount":null},{"id":"0x3e2ee595be459d0d:0xb0f685d5c33da324","status":"stable","name":"باسكن روبنز","category":"حلا","type":"Ice cream shop","district":"الامير سعود بن عبدالله بن جلوي","location":"الامير سعود بن عبدالله بن جلوي، الرياض 13333،","phone":null,"rate":3.0,"reviews":108,"lat":24.8591297,"lng":46.6465466,"mapUrl":null,"owner":null,"matchedRule":"brand:baskin_robbins","businessStatus":null,"photoCount":null},{"id":"0x3e2ee52b2abb046f:0x2de830a20ae412d1","status":"stable","name":"Abi baker","category":"بيكري","type":"Delivery service","district":"An Narjis","location":"2209 Abi Bakr As Siddiq Rd, An Narjis, Riyadh 13333","phone":null,"rate":4.2,"reviews":5,"lat":24.858264199999997,"lng":46.6465874,"mapUrl":null,"owner":null,"matchedRule":"keyword:bakery","businessStatus":null,"photoCount":null},{"id":"0x3e2ee50014b56517:0x81c1afdd52cba2f1","status":"stable","name":"تورتا اند مور","category":"بيكري","type":"Bakery","district":"Al Aarid","location":"7129 اللؤلؤه, Al Aarid, 3085, Riyadh 13335","phone":null,"rate":4.8,"reviews":6,"lat":24.861323499999997,"lng":46.6286802,"mapUrl":null,"owner":null,"matchedRule":"google_type:bakery","businessStatus":null,"photoCount":null},{"id":"0x3e2ef9af7450371d:0x19213e090dfbc539","status":"stable","name":"ديلان كافية","category":"قهوة","type":"Coffee shop","district":"Ar Rimal","location":"6553 Al Thoumamah Rd، حي الرمال، RURB3888، 3888, Riyadh 13423","phone":"0592843842","rate":4.5,"reviews":44,"lat":24.861307099999998,"lng":46.7870238,"mapUrl":null,"owner":null,"matchedRule":"keyword:coffee","businessStatus":null,"photoCount":null},{"id":"0x3e2ef96e60e7de0f:0x31fd5fb73ba31d0a","status":"stable","name":"شاهي","category":"شاهي","type":"Coffee shop","district":"Ar Rimal","location":"6405 شارع الضوء، حي الرمال، RURD2600، 2600, Riyadh 13431","phone":null,"rate":5.0,"reviews":1,"lat":24.8743333,"lng":46.811222199999996,"mapUrl":null,"owner":null,"matchedRule":"keyword:tea","businessStatus":null,"photoCount":null},{"id":"0x3e2e5515c0aa82ef:0x85de72fa1d6c9131","status":"stable","name":"خليه بناتي","category":"دونات","type":"Donut shop","district":"البيان","location":"2837 ابن الجزري، حي البيان، 6976, Riyadh 13618","phone":"0539033376","rate":4.0,"reviews":81,"lat":24.8758508,"lng":46.8644403,"mapUrl":null,"owner":null,"matchedRule":"google_type:donut shop","businessStatus":null,"photoCount":null},{"id":"0x3e2ef90ec1a125cb:0x58f16248c21e6a87","status":"stable","name":"مقهى من افخخم","category":"قهوة","type":"Cafe","district":"Ar Rimal","location":"VRJC+33X, Ar Rimal, Riyadh 13431","phone":null,"rate":3.6,"reviews":37,"lat":24.880242499999998,"lng":46.8202334,"mapUrl":null,"owner":null,"matchedRule":"keyword:coffee","businessStatus":null,"photoCount":null},{"id":"0x3e2ef10069b10b69:0x5ef2666d7ac3b880","status":"stable","name":"ذا لاونج","category":"قهوة","type":"Coffee shop","district":"غير محدد","location":"WM7Q+GMQ, King Khalid International Airport, Riyadh 13442","phone":null,"rate":5.0,"reviews":4,"lat":24.9138298,"lng":46.689238499999995,"mapUrl":null,"owner":null,"matchedRule":"google_type:coffee shop","businessStatus":null,"photoCount":null},{"id":"0x3e2ef12b4de973f9:0xe2f9b63f385c324d","status":"stable","name":"Dunkin","category":"دونات","type":"Cafe","district":"غير محدد","location":"WM7Q+GP, King Khalid International Airport, Riyadh 13442","phone":null,"rate":4.2,"reviews":19,"lat":24.9137991,"lng":46.689253199999996,"mapUrl":null,"owner":null,"matchedRule":"brand:dunkin","businessStatus":null,"photoCount":null},{"id":"0x3e2ef74b5617487b:0x899b18052cb4f190","status":"stable","name":"Paul","category":"قهوة","type":"Coffee shop","district":"Ar Rimal","location":"WQRX+MWX, Ar Rimal, Riyadh 13454","phone":null,"rate":5.0,"reviews":5,"lat":24.9415779,"lng":46.7990407,"mapUrl":null,"owner":null,"matchedRule":"brand:paul","businessStatus":null,"photoCount":null},{"id":"0x3e2ef1a16411f95d:0x647fad8ff4f67caa","status":"stable","name":"Baskin Robbins","category":"حلا","type":"Ice cream shop","district":"غير محدد","location":"Airport Road, King Khalid International Airport, Riyadh 13458","phone":null,"rate":3.8,"reviews":33,"lat":24.9439344,"lng":46.711423599999996,"mapUrl":null,"owner":null,"matchedRule":"brand:baskin_robbins","businessStatus":null,"photoCount":null},{"id":"0x3e2ef77e211c3101:0x474334b341afd93b","status":"stable","name":"شاهي الحلو","category":"شاهي","type":"Cafe","district":"Ar Rimal","location":"RUAA6127، 6127 خزام، 3112، حي, الرمال،, Riyadh 13457","phone":null,"rate":3.0,"reviews":1,"lat":24.949913199999997,"lng":46.7580412,"mapUrl":null,"owner":null,"matchedRule":"keyword:tea","businessStatus":null,"photoCount":null},