[{"id":"0x3e2f03113cab44a7:0xe090502c826fbbc0","status":"stable","name":"CAN","type":"Cafe","district":"غير محدد","location":"3179 Prince Muhammad Ibn Abd Al Aziz, As Sulimaniyah, Riyadh 12223","arLocation":"3179 طريق الأمير محمد بن عبدالعزيز، السليمانية، الرياض 12223","phone":"0112352474","rate":4.1,"reviews":1444,"lat":24.7011042,"lng":46.695609399999995,"mapUrl":null,"placeUrl":null,"photoCount":null,"claimed":null,"businessStatus":null,"dateScraped":"2024-06-26"},{"id":"0x3e2f1d29993ce35d:0xcca131e63e618108","status":"stable","name":"KFC","type":"Fast food restaurant","district":"غير محدد","location":"Tahkassose street, Euromarche market, Riyadh","arLocation":null,"phone":"920021111","rate":3.8,"reviews":2297,"lat":24.7045778,"lng":46.6647609,"mapUrl":null,"placeUrl":null,"photoCount":null,"claimed":null,"businessStatus":null,"dateScraped":"2024-06-26"},{"id":"0x3e2f03e97a20fb33:0xa517fdfd2bab329c","status":"stable","name":"علو","type":"Coffee shop","district":"غير محدد","location":"2513 Al Ulaya, حي الورود, RHWA6755, 6755, Riyadh 12251","arLocation":null,"phone":null,"rate":4.5,"reviews":312,"lat":24.7202582,"lng":46.672072899999996,"mapUrl":null,"placeUrl":null,"photoCount":null,"claimed":null,"businessStatus":null,"dateScraped":"2024-06-26"},{"id":"0x3e2f1d53bb6a49bf:0x4bd94025c96364c9","status":"stable","name":"less","type":"Coffee shop","district":"غير محدد","location":"Al Takhassousi, حي المحمدية, Riyadh 12363","arLocation":"شارع التخصصي, حي المحمدية، الرياض 12363","phone":null,"rate":3.9,"reviews":342,"lat":24.7340859,"lng":46.648852299999994,"mapUrl":null,"placeUrl":null,"photoCount":null,"claimed":null,"businessStatus":null,"dateScraped":"2024-06-26"},{"id":"0x3e2ee3000159633f:0x32842067f3dbfc22","status":"stable","name":"signature","type":"Bakery","district":"غير محدد","location":"QM97+82G, Al Ghadir, Riyadh 13311","arLocation":"QM97+82G، الغدير، الرياض 13311","phone":null,"rate":5.0,"reviews":1,"lat":24.7683034,"lng":46.6625874,"mapUrl":null,"placeUrl":null,"photoCount":null,"claimed":null,"businessStatus":null,"dateScraped":"2024-06-26"},{"id":"0x3e2ee3e3ee681911:0xfc09ac904c963753","status":"stable","name":"ion","type":"Coffee shop","district":"غير محدد","location":"QMC3+WCV, Al Ghadir, Riyadh 13311","arLocation":"QMC3+WCV، الغدير، الرياض 13311","phone":"0501400097","rate":4.3,"reviews":47,"lat":24.772312499999998,"lng":46.6535625,"mapUrl":null,"placeUrl":null,"photoCount":null,"claimed":null,"businessStatus":null,"dateScraped":"2024-06-26"},{"id":"0x3e2efd10dc160221:0x645a226d371c1830","status":"stable","name":"BAC","type":"Coffee shop","district":"غير محدد","location":"2686 الاعشى بن قيس، حي قرطبة، 7600, Riyadh 13244","arLocation":null,"phone":null,"rate":3.0,"reviews":1,"lat":24.807040699999998,"lng":46.7208423,"mapUrl":null,"placeUrl":null,"photoCount":null,"claimed":null,"businessStatus":null,"dateScraped":"2024-06-26"},{"id":"0x3e2ee504030104e5:0xd7f33828991ade5a","status":"stable","name":"Make","type":"Coffee shop","district":"غير محدد","location":"ابحر, Al Malqa, Riyadh 13525","arLocation":"ابحر، الملقا، الرياض 13525","phone":null,"rate":4.6,"reviews":130,"lat":24.8143557,"lng":46.5951191,"mapUrl":null,"placeUrl":null,"photoCount":null,"claimed":null,"businessStatus":null,"dateScraped":"2024-06-26"},{"id":"0x3e2ee5f036bfb929:0x10284240f9f77cb7","status":"stable","name":"ZAD","type":"Supermarket","district":"غير محدد","location":"VJ23+C83, King Fahd Rd, Al Aarid, Riyadh 13334","arLocation":"VJ23+C83، طريق الملك فهد، العارض، الرياض 13334","phone":null,"rate":3.6,"reviews":36,"lat":24.851002899999997,"lng":46.6032988,"mapUrl":null,"placeUrl":null,"photoCount":null,"claimed":null,"businessStatus":null,"dateScraped":"2024-06-26"},{"id":"0x3e2f1924786f669b:0x322c68bbcfadaf97","status":"stable","name":"تموينات ندى المحزري","type":"Supermarket","district":"غير محدد","location":"Sulayman Ibn Abdulmalik Ibn Marwan, Tuwaiq, Riyadh 14928","arLocation":"سليمان بن عبدالملك بن مروان، طويق، الرياض 14928","phone":"0503613162","rate":3.4,"reviews":7,"lat":24.567297099999998,"lng":46.5430273,"mapUrl":null,"placeUrl":null,"photoCount":null,"claimed":null,"businessStatus":null,"dateScraped":"2024-06-26"},{"id":"0x3e2f19f459e13165:0x8e41dd57aa409114","status":"stable","name":"Kudu - Tuwaiq","type":"Restaurant","district":"غير محدد","location":"Tuwaiq, Riyadh 14928","arLocation":"طويق، الرياض 14928","phone":"920006999","rate":4.0,"reviews":351,"lat":24.5678186,"lng":46.543942099999995,"mapUrl":null,"placeUrl":null,"photoCount":null,"claimed":null,"businessStatus":null,"dateScraped":"2024-06-26"},{"id":"0x3e2f199fc3fd8fa5:0x6a94337dfd19163a","status":"stable","name":"Baskin Robbins","type":"Ice cream shop","district":"غير محدد","location":"HG9V+5H8, Sulayman Ibn Abdulmalik Ibn Marwan, Tuwaiq, Riyadh 14928","arLocation":"HG9V+5H8، سليمان بن عبدالملك بن مروان، طويق، الرياض 14928","phone":null,"rate":2.8,"reviews":4,"lat":24.567914599999998,"lng":46.543946899999995,"mapUrl":null,"placeUrl":null,"photoCount":null,"claimed":null,"businessStatus":null,"dateScraped":"2024-06-26"},{"id":"0x3e2f191d2f4a947f:0xd43faae84f0ca437","status":"stable","name":"فخامة الابداع للاثاث الجاهز والتفصيل","type":"Furniture store","district":"غير محدد","location":"Tuwaiq, Riyadh 14928","arLocation":"طويق، الرياض 14928","phone":"0502346532","rate":3.6,"reviews":114,"lat":24.5673134,"lng":46.5433142,"mapUrl":null,"placeUrl":null,"photoCount":null,"claimed":null,"businessStatus":null,"dateScraped":"2024-06-26"},{"id":"0x3e2f11f863771e9d:0x5344c603b4a6b2ac","status":"stable","name":"ALHatab Bakery","type":"Bakery","district":"غير محدد","location":"3560 Western Ring Branch Rd، opposite the Honda Agency 6903, Riyadh 12993","arLocation":"3560 الطريق الدائري الغربي الفرعي، opposite the Honda Agency 6903، الرياض 12993","phone":"920002281","rate":4.2,"reviews":1283,"lat":24.568413099999997,"lng":46.6207516,"mapUrl":null,"placeUrl":null,"photoCount":null,"claimed":null,"businessStatus":null,"dateScraped":"2024-06-26"},{"id":"0x3e2f1bd4c31d853d:0x44c66bf8bbc3cdb9","status":"stable","name":"Kudu - As Suwaidi Al Gharabi","type":"Restaurant","district":"غير محدد","location":"7214 Western Ring Rd، حي 2930, Riyadh 12992","arLocation":"7214 الطريق الدائري الغربي، حي 2930، الرياض 12992","phone":"920006999","rate":4.0,"reviews":262,"lat":24.5714577,"lng":46.6140413,"mapUrl":null,"placeUrl":null,"photoCount":null,"claimed":null,"businessStatus":null,"dateScraped":"2024-06-26"},{"id":"0x3e2f1117e374f3c3:0x801993c76f4e5e76","status":"stable","name":"مامولا","type":"Confectionery store","district":"غير محدد","location":"Western Ring Rd, ،، Riyadh 12993","arLocation":"الطريق الدائري الغربي، ،، الرياض 12993","phone":"0551710382","rate":4.4,"reviews":465,"lat":24.5668653,"lng":46.6238519,"mapUrl":null,"placeUrl":null,"photoCount":null,"claimed":null,"businessStatus":null,"dateScraped":"2024-06-26"},{"id":"0x3e2f11a660c06e97:0x69f47c9013d36dee","status":"stable","name":"Top100","type":"Candy store","district":"غير محدد","location":"Western Ring Branch Rd, As Suwaidi Al Gharabi, Riyadh 12992","arLocation":"الطريق الدائري الغربي الفرعي، السويدي الغربي، الرياض 12992","phone":"0552121941","rate":4.1,"reviews":374,"lat":24.5665139,"lng":46.624652399999995,"mapUrl":null,"placeUrl":null,"photoCount":null,"claimed":null,"businessStatus":null,"dateScraped":"2024-06-26"},{"id":"0x3e2f1015164c2337:0x7064ac38feadaae0","status":"stable","name":"Baskin Robbins","type":"Ice cream shop","district":"غير محدد","location":"HM83+H2C, Southern Ring Branch Rd, Shubra, Riyadh 12989","arLocation":"HM83+H2C، الطريق الدائري الجنوبي الفرعي، شبرا، الرياض 12989","phone":"920013120","rate":3.9,"reviews":291,"lat":24.5664451,"lng":46.6525135,"mapUrl":null,"placeUrl":null,"photoCount":null,"claimed":null,"businessStatus":null,"dateScraped":"2024-06-26"},{"id":"0x3e2f10153d872bed:0x5a12924f8ee85f6b","status":"stable","name":"Sweets and Bakeries Kingdom","type":"Dessert shop","district":"غير محدد","location":"4050 Southern Ring Branch Rd, Shubra, Riyadh 12989","arLocation":"4050 الطريق الدائري الجنوبي الفرعي، شبرا، الرياض 12989","phone":"0549101626","rate":3.6,"reviews":63,"lat":24.566333,"lng":46.6523794,"mapUrl":null,"placeUrl":null,"photoCount":null,"claimed":null,"businessStatus":null,"dateScraped":"2024-06-26"},{"id":"0x3e2f10192f612e8b:0xf66ee6b973e3da44","status":"stable","name":"أسواق ومخابز اصل الرجبة","type":"Grocery store","district":"غير محدد","location":"Shubra, Riyadh 12799","arLocation":"شبرا، الرياض 12799","phone":"0503993529","rate":4.1,"reviews":176,"lat":24.5720675,"lng":46.6651198,"mapUrl":null,"placeUrl":null,"photoCount":null,"claimed":null,"businessStatus":null,"dateScraped":"2024-06-26"},{"id":"0x3e2f0fb127ac7bd7:0x6003a357c8b3d089","status":"stable","name":"حلويات الركن العربي","type":"Bakery","district":"غير محدد","location":"7846 Al Muthanna Ibn Harisa, Ash Shifa, Riyadh 14713","arLocation":"7846 المثنى بن حارثة، الشفا، الرياض 14713","phone":"0503053934","rate":3.9,"reviews":94,"lat":24.5679259,"lng":46.695450699999995,"mapUrl":null,"placeUrl":null,"photoCount":null,"claimed":null,"businessStatus":null,"dateScraped":"2024-06-26"},{"id":"0x3e2f0fb819cccf4d:0xaf646eeafa37846d","status":"stable","name":"Othaim Markets","type":"Supermarket","district":"غير محدد","location":"Al Muthanna Ibn Harisa, طريق ديراب الفرعي قبل تقاطع, Riyadh","arLocation":"المثنى بن حارثة، طريق ديراب الفرعي قبل تقاطع, الرياض","phone":"920000702","rate":4.1,"reviews":1510,"lat":24.56962,"lng":46.690988,"mapUrl":null,"placeUrl":null,"photoCount":null,"claimed":null,"businessStatus":null,"dateScraped":"2024-06-26"},{"id":"0x3e2f0fb125c9471b:0xe1f9e27d8ee1f44d","status":"stable","name":"اسواق ريف الشفاء المركزية","type":"Supermarket","district":"غير محدد","location":"Al Muthanna Ibn Harisa, Ash Shifa, Riyadh 14713","arLocation":"المثنى بن حارثة، الشفا، الرياض 14713","phone":"0542995516","rate":4.2,"reviews":294,"lat":24.567822099999997,"lng":46.6954139,"mapUrl":null,"placeUrl":null,"photoCount":null,"claimed":null,"businessStatus":null,"dateScraped":"2024-06-26"},{"id":"0x3e2f0fadd34592ef:0xd9a7703a2d11808","status":"stable","name":"تموينات اندونيسيا (للماكولات اندونيسية)","type":"Grocery store","district":"غير محدد","location":"4012 At Turmudhi Ash Shifa Riyadh 14713 7812 Al Tourmouzi, 7812, Ash Shifa, Riyadh 14713","arLocation":"4012 At Turmudhi Ash Shifa Riyadh 14713 7812 الترمذي، 7812، الشفا، الرياض 14713","phone":null,"rate":3.7,"reviews":86,"lat":24.5677663,"lng":46.701830199999996,"mapUrl":null,"placeUrl":null,"photoCount":null,"claimed":null,"businessStatus":null,"dateScraped":"2024-06-26"},{"id":"0x3e2f0fadd33a3153:0x2bf9438ffd3fc137","status":"stable","name":"Honey Cell","type":"Natural goods store","district":"غير محدد","location":"4012 Al Tourmouzi, 7812, Ash Shifa، Saudi, Riyadh 14713","arLocation":"4012 الترمذي، 7812، الشفا، Saudi، الرياض 14713","phone":"0556668562","rate":4.3,"reviews":38,"lat":24.5677007,"lng":46.7018811,"mapUrl":null,"placeUrl":null,"photoCount":null,"claimed":null,"businessStatus":null,"dateScraped":"2024-06-26"},{"id":"0x3e2f0e55a54e28fb:0x169d650f8afd1fcf","status":"stable","name":"أسواق بيت الوناسة","type":"Candy store","district":"غير محدد","location":"7858 Al Tourmouzi, Ash Shifa, Riyadh 14713","arLocation":"7858 الترمذي، الشفا، الرياض 14713","phone":"0556245355","rate":4.0,"reviews":4680,"lat":24.568040999999997,"lng":46.701635499999995,"mapUrl":null,"placeUrl":null,"photoCount":null,"claimed":null,"businessStatus":null,"dateScraped":"2024-06-26"},{"id":"0x3e2f0f5f80b7277b:0x7b5ea0d826d2f278","status":"stable","name":"شركة المناشير الماسية للتجارة","type":"Grocery store","district":"غير محدد","location":"HP8R+H23, Al-Masani', Riyadh 14714","arLocation":"HP8R+H23، المصانع، الرياض 14714","phone":"0502117769","rate":4.0,"reviews":27,"lat":24.5663862,"lng":46.7400581,"mapUrl":null,"placeUrl":null,"photoCount":null,"claimed":null,"businessStatus":null,"dateScraped":"2024-06-26"},{"id":"0x3e2f09f115883b5b:0x7e5bee6101bc22c8","status":"stable","name":"تموينات شركة اسواق و مخابز طيف الجوهرة","type":"Supermarket","district":"غير محدد","location":"RMAA6628، 3640 Wadi Jizan، حي العزيزية، 6628, Riyadh 14515, Riyadh 14522","arLocation":null,"phone":"0557879686","rate":4.3,"reviews":11,"lat":24.5669641,"lng":46.762480599999996,"mapUrl":null,"placeUrl":null,"photoCount":null,"claimed":null,"businessStatus":null,"dateScraped":"2024-06-26"},{"id":"0x3e2f094f7ce4f715:0x95bbb3553081116c","status":"stable","name":"اسواق إيلاف","type":"Supermarket","district":"غير محدد","location":"RMAB4104، 4104 Nahawand, 6984، حي العزيزية، RMAB4104، 4104 نهاوند، 6984، حي العزيزية، الرياض 14515،, Riyadh 14515","arLocation":null,"phone":"0569955711","rate":3.8,"reviews":73,"lat":24.570173399999998,"lng":46.7672157,"mapUrl":null,"placeUrl":null,"photoCount":null,"claimed":null,"businessStatus":null,"dateScraped":"2024-06-26"},{"id":"0x3e2f09bb07b94301:0x8e528f9cb7a6a8f8","status":"stable","name":"OTHAIM 181","type":"Supermarket","district":"غير محدد","location":"8087 Fatih Makkah Rd, Ad Dar Al Baida, 2061, Riyadh 14518","arLocation":"8087 Fatih Makkah Rd, الدار البيضاء، 2061, الرياض 14518","phone":null,"rate":5.0,"reviews":2,"lat":24.567963,"lng":46.772374,"mapUrl":null,"placeUrl":null,"photoCount":null,"claimed":null,"businessStatus":null,"dateScraped":"2024-06-26"},{"id":"0x3e2f0947ec2c9d15:0x43b804a1c416a0f6","status":"stable","name":"أسواق خيرات الحزم","type":"Supermarket","district":"غير محدد","location":"حي, 3216 عبدالقادر الجزائري، الدار البيضاء، الرياض 14518 7957،","arLocation":null,"phone":null,"rate":4.1,"reviews":7,"lat":24.566606,"lng":46.7840542,"mapUrl":null,"placeUrl":null,"photoCount":null,"claimed":null,"businessStatus":null,"dateScraped":"2024-06-26"},{"id":"0x3e2f099cc87ed049:0x8b35f0f81af9862b","status":"stable","name":"Kudu - Riyadh - Aldar Albidaa","type":"Restaurant","district":"غير محدد","location":"Al Aziziah Rd, Ad Dar Al Baida, Riyadh 14517","arLocation":"طريق العزيزية الفرعي، الدار البيضاء، الرياض 14517","phone":"920006999","rate":3.8,"reviews":671,"lat":24.566667799999998,"lng":46.790055599999995,"mapUrl":null,"placeUrl":null,"photoCount":null,"claimed":null,"businessStatus":null,"dateScraped":"2024-06-26"},{"id":"0x3e2f099cc65a9b6b:0x793dfb7b78402a63","status":"stable","name":"حلويات ميني كيك الدار البيضاء","type":"Candy store","district":"غير محدد","location":"HQ8R+M2R, Ad Dar Al Baida, Riyadh 14517","arLocation":"HQ8R+M2R، الدار البيضاء، الرياض 14517","phone":"0552244238","rate":4.0,"reviews":228,"lat":24.5667449,"lng":46.790016,"mapUrl":null,"placeUrl":null,"photoCount":null,"claimed":null,"businessStatus":null,"dateScraped":"2024-06-26"},{"id":"0x3e2f0918d50825ad:0xa4dbf6bec32aa6a2","status":"stable","name":"اسواق الوسام للمواد الغذائية","type":"Grocery store","district":"غير محدد","location":"HR92+5C2, Ad Dar Al Baida, Riyadh 14517","arLocation":"HR92+5C2، الدار البيضاء، الرياض 14517","phone":null,"rate":3.2,"reviews":23,"lat":24.5678993,"lng":46.8010132,"mapUrl":null,"placeUrl":null,"photoCount":null,"claimed":null,"businessStatus":null,"dateScraped":"2024-06-26"},{"id":"0x3e2f09ad9133efd5:0x429acebd34d6b420","status":"stable","name":"اسواق ثمار العزيزيه","type":"Grocery store","district":"غير محدد","location":"ابن حجر, Ad Dar Al Baida, Riyadh 14516","arLocation":"ابن حجر، الدار البيضاء، الرياض 14516","phone":null,"rate":4.1,"reviews":141,"lat":24.5698002,"lng":46.805099899999995,"mapUrl":null,"placeUrl":null,"photoCount":null,"claimed":null,"businessStatus":null,"dateScraped":"2024-06-26"},{"id":"0x3e2f09f5e5d4e6b7:0xb0af2bf72502ce00","status":"stable","name":"اغلي بلد","type":"Supermarket","district":"غير محدد","location":"HR92+5GR، HR92+5C2،، الدار البيضاء،, Riyadh 14517،","arLocation":null,"phone":"0543602712","rate":1.0,"reviews":1,"lat":24.567994199999998,"lng":46.8012571,"mapUrl":null,"placeUrl":null,"photoCount":null,"claimed":null,"businessStatus":null,"dateScraped":"2024-06-26"},{"id":"0x3e2f191e796e133d:0xb0ea151c4d5c3de2","status":"stable","name":"تموينات هند العتيبي","type":"Supermarket","district":"غير محدد","location":"8119 النبع، حي طويق، الرياض 14928 2204،","arLocation":null,"phone":"0501801621","rate":3.6,"reviews":11,"lat":24.5734794,"lng":46.5363744,"mapUrl":null,"placeUrl":null,"photoCount":null,"claimed":null,"businessStatus":null,"dateScraped":"2024-06-26"},{"id":"0x3e2f1b48d10cf53d:0x80d227609823c639","status":"stable","name":"فوال صناعية العاصمة","type":"Brunch restaurant","district":"غير محدد","location":"HJG3+5R8، السويدي،, Riyadh 14925","arLocation":null,"phone":null,"rate":4.8,"reviews":4,"lat":24.5754052,"lng":46.604586,"mapUrl":null,"placeUrl":null,"photoCount":null,"claimed":null,"businessStatus":null,"dateScraped":"2024-06-26"},{"id":"0x3e2f1a78ab90a8a3:0x967097e204d47dc6","status":"stable","name":"Badi' Az Zaman Bakery and Sweet","type":"Bakery","district":"غير محدد","location":"شارع الشيخ صالح بن عبد العزيز, As Suwaidi Al Gharabi, Riyadh 11218","arLocation":"شارع الشيخ صالح بن عبد العزيز، السويدي الغربي، الرياض 11218","phone":"0502121913","rate":3.8,"reviews":286,"lat":24.5748529,"lng":46.626774999999995,"mapUrl":null,"placeUrl":null,"photoCount":null,"claimed":null,"businessStatus":null,"dateScraped":"2024-06-26"},{"id":"0x3e2f11a44298bdf3:0x73392e7588029d9f","status":"stable","name":"أسواق العثيم 364","type":"Convenience store","district":"غير محدد","location":"5043 Hamzah Ibn Abd Al Mouttaleb, As Suwaidi Al Gharabi, Riyadh 12991","arLocation":"5043 شارع حمزة بن عبدالمطلب، السويدي الغربي، الرياض 12991","phone":null,"rate":3.4,"reviews":22,"lat":24.573040499999998,"lng":46.635028299999995,"mapUrl":null,"placeUrl":null,"photoCount":null,"claimed":null,"businessStatus":null,"dateScraped":"2024-06-26"},{"id":"0x3e2f0fbb5fed5aaf:0x4bc2109423583252","status":"stable","name":"قرصان الضيافة الفرع 2. ركن ديرتي سابقأً","type":"Bakery","district":"غير محدد","location":"2231-2251 Dirab Branch Rd, Ash Shifa, Riyadh 14712","arLocation":"2231-2251 طريق ديراب الفرعي، الشفا، الرياض 14712","phone":"0545390170","rate":4.0,"reviews":103,"lat":24.5763149,"lng":46.698455499999994,"mapUrl":null,"placeUrl":null,"photoCount":null,"claimed":null,"businessStatus":null,"dateScraped":"2024-06-26"},{"id":"0x3e2f092b64c7e025:0x437bdd59e605f3a8","status":"stable","name":"Othaim Markets","type":"Supermarket","district":"غير محدد","location":"Al Haeer Rd, Al Aziziyah, Riyadh 14515","arLocation":"طريق الحائر، العزيزية، الرياض 14515","phone":"920000702","rate":4.2,"reviews":2564,"lat":24.576051,"lng":46.749955,"mapUrl":null,"placeUrl":null,"photoCount":null,"claimed":null,"businessStatus":null,"dateScraped":"2024-06-26"},{"id":"0x3e2f09ec363befc3:0xf761b864f9a79fbe","status":"stable","name":"اسواق باب الخير المركزية","type":"Grocery store","district":"غير محدد","location":"Arafat Rd, Ad Dar Al Baida, Riyadh 14518","arLocation":"طريق عرفات، الدار البيضاء، الرياض 14518","phone":"0553497766","rate":4.0,"reviews":668,"lat":24.5720837,"lng":46.7809445,"mapUrl":null,"placeUrl":null,"photoCount":null,"claimed":null,"businessStatus":null,"dateScraped":"2024-06-26"},{"id":"0x3e2f09efbae601eb:0x46b65b1dea2a35e1","status":"stable","name":"أسواق ومخابز ينابيع المستهلك Markets and Bakeries Consumer Spring","type":"Supermarket","district":"غير محدد","location":"طريق العزيزية،, Riyadh","arLocation":"طريق العزيزية،، الرياض","phone":null,"rate":4.4,"reviews":45,"lat":24.572739,"lng":46.785813399999995,"mapUrl":null,"placeUrl":null,"photoCount":null,"claimed":null,"businessStatus":null,"dateScraped":"2024-06-26"},{"id":"0x3e2fa755d32978ed:0xa5be175d1f047f0f","status":"stable","name":"مخابز ركن الرده حلويات","type":"Bakery","district":"غير محدد","location":"السمح بن مالك ، حي مجمع الاسكان - طريق الخرج إسكان رقم 1, Riyadh","arLocation":null,"phone":"0114993111","rate":3.5,"reviews":2,"lat":24.5742302,"lng":46.827684999999995,"mapUrl":null,"placeUrl":null,"photoCount":null,"claimed":null,"businessStatus":null,"dateScraped":"2024-06-26"},{"id":"0x3e2f18514845562d:0x6790517b3ff0c6c8","status":"stable","name":"معمل نورمان للحلويات","type":"Bakery","district":"غير محدد","location":"Tuwaiq، شارع بلال بن رباح، حي, Riyadh","arLocation":"طويق، شارع بلال بن رباح، حي، الرياض","phone":"0509070336","rate":4.5,"reviews":11,"lat":24.5796255,"lng":46.5488751,"mapUrl":null,"placeUrl":null,"photoCount":null,"claimed":null,"businessStatus":null,"dateScraped":"2024-06-26"},{"id":"0x3e2f18508eb6ea73:0x2f50b935145a7f9c","status":"stable","name":"أسواق الجبيل للمواد الغذائية","type":"Supermarket","district":"غير محدد","location":"HGGW+R96، شارع الذهبي ، حي طويق, Tuwaiq, Riyadh 14923","arLocation":"HGGW+R96، شارع الذهبي ، حي طويق، طويق، الرياض 14923","phone":"0112336404","rate":3.8,"reviews":54,"lat":24.577026999999998,"lng":46.5458937,"mapUrl":null,"placeUrl":null,"photoCount":null,"claimed":null,"businessStatus":null,"dateScraped":"2024-06-26"},{"id":"0x3e2f198d35c6dc0d:0xcfea3439b1ca27e9","status":"stable","name":"HyperPanda","type":"Supermarket","district":"غير محدد","location":"HHHM+GP, Bilal Ibn Rabah, Tuwaiq, Riyadh 14921","arLocation":"HHHM+GP، بلال بن رباح، طويق، الرياض 14921","phone":"920027707","rate":4.0,"reviews":4513,"lat":24.5787901,"lng":46.5843041,"mapUrl":null,"placeUrl":null,"photoCount":null,"claimed":null,"businessStatus":null,"dateScraped":"2024-06-26"},{"id":"0x3e2f198d4cd7821d:0x2fe70dbaf9a62095","status":"stable","name":"باسكن روبنز","type":"Ice cream shop","district":"غير محدد","location":"2889 Bilal Ibn Rabah, Tuwaiq, Riyadh 14921 6565 Bilal Ibn Rabah, 6565, Tuwaiq, Riyadh 14921","arLocation":"2889 Bilal Ibn Rabah, Tuwaiq, Riyadh 14921 6565 بلال بن رباح، 6565، طويق، الرياض 14921","phone":"0114035739","rate":3.6,"reviews":97,"lat":24.5787782,"lng":46.584174999999995,"mapUrl":null,"placeUrl":null,"photoCount":null,"claimed":null,"businessStatus":null,"dateScraped":"2024-06-26"},{"id":"0x3e2f192d01754c09:0x792cf235224c8be","status":"stable","name":"أسواق ثرى نجد","type":"Supermarket","district":"غير محدد","location":"Bilal Ibn Rabah, Tuwaiq, Riyadh 14921","arLocation":"بلال بن رباح، طويق، الرياض 14921","phone":"0502664679","rate":4.2,"reviews":10,"lat":24.5777567,"lng":46.579989999999995,"mapUrl":null,"placeUrl":null,"photoCount":null,"claimed":null,"businessStatus":null,"dateScraped":"2024-06-26"},{"id":"0x3e2f199339f23b2d:0x3a1ce44510e014e0","status":"stable","name":"Kudu - Tuwaiq - Riyadh","type":"Restaurant","district":"غير محدد","location":"2448 Bilal Ibn Rabah, Tuwaiq, Riyadh 14921","arLocation":"2448 بلال بن رباح، طويق، الرياض 14921","phone":"920006999","rate":3.8,"reviews":1099,"lat":24.5777535,"lng":46.5803146,"mapUrl":null,"placeUrl":null,"photoCount":null,"claimed":null,"businessStatus":null,"dateScraped":"2024-06-26"},{"id":"0x3e2f1b08f491ad05:0xa05639957688a2bc","status":"stable","name":"تموينات ولد البادية","type":"Supermarket","district":"غير محدد","location":"Aluraija Al Gharbiyah, Riyadh 12978","arLocation":"العريجاء الغربية، الرياض 12978","phone":"0504901423","rate":2.0,"reviews":4,"lat":24.5808827,"lng":46.6028403,"mapUrl":null,"placeUrl":null,"photoCount":null,"claimed":null,"businessStatus":null,"dateScraped":"2024-06-26"},{"id":"0x3e2f1b007673185b:0x7a37bef7aa3e931a","status":"stable","name":"الصالة الاقتصادية قريبن","type":"Convenience store","district":"غير محدد","location":"4807 Western Ring Branch Rd, Aluraija Al Gharbiyah، 6566, Riyadh 14921","arLocation":"4807 الطريق الدائري الغربي الفرعي، العريجاء الغربية، 6566، الرياض 14921","phone":null,"rate":3.0,"reviews":2,"lat":24.577501899999998,"lng":46.6037799,"mapUrl":null,"placeUrl":null,"photoCount":null,"claimed":null,"businessStatus":null,"dateScraped":"2024-06-26"},{"id":"0x3e2f1a720e58c9c5:0xaed05f8d959f43b2","status":"stable","name":"Zahrat Al Rajba","type":"Supermarket","district":"غير محدد","location":"8171 Al Fajar St, As Suwaidi Al Gharabi, Riyadh 12991","arLocation":"8171 شارع الفجر، السويدي الغربي، الرياض 12991","phone":null,"rate":4.0,"reviews":589,"lat":24.5800518,"lng":46.6166499,"mapUrl":null,"placeUrl":null,"photoCount":null,"claimed":null,"businessStatus":null,"dateScraped":"2024-06-26"},{"id":"0x3e2f1a12c4abd7f1:0x5392ecff4952c7e5","status":"stable","name":"العريني للتمور الفاخرة","type":"Natural goods store","district":"غير محدد","location":"طريق المدينة المنورة، العريجاء, As Suwaidi Al Gharabi, Riyadh 12992","arLocation":"طريق المدينة المنورة، العريجاء، السويدي الغربي، الرياض 12992","phone":"0555174239","rate":3.9,"reviews":157,"lat":24.5805783,"lng":46.6116646,"mapUrl":null,"placeUrl":null,"photoCount":null,"claimed":null,"businessStatus":null,"dateScraped":"2024-06-26"},{"id":"0x3e2f1a7fa083da7b:0xca1c08c5af9961c1","status":"stable","name":"Almamlaka Sweets","type":"Dessert shop","district":"غير محدد","location":"Ash Shaikh Salih Ibn Abdul Aziz Ibn Abdul Rahman, As Suwaidi Al Gharabi, Riyadh 12991","arLocation":"الشيخ صالح بن عبد العزيز بن عبد الرحمن، السويدي الغربي، الرياض 12991","phone":"0549101628","rate":3.8,"reviews":95,"lat":24.576818499999998,"lng":46.629186999999995,"mapUrl":null,"placeUrl":null,"photoCount":null,"claimed":null,"businessStatus":null,"dateScraped":"2024-06-26"},{"id":"0x3e2f1b0042384b5d:0xacdf090628961051","status":"stable","name":"تموينات أغراض بيتك","type":"Supermarket","district":"غير محدد","location":"HJGH+VWF، الشيخ صالح بن عبدالعزيز, As Suwaidi Al Gharabi, Riyadh 12991","arLocation":"HJGH+VWF، الشيخ صالح بن عبدالعزيز، السويدي الغربي، الرياض 12991","phone":"0537688302","rate":3.0,"reviews":4,"lat":24.577199699999998,"lng":46.629798699999995,"mapUrl":null,"placeUrl":null,"photoCount":null,"claimed":null,"businessStatus":null,"dateScraped":"2024-06-26"},{"id":"0x3e2f11da6c5a6acb:0xdc336162fa1408fc","status":"stable","name":"مخبز","type":"Bakery","district":"غير محدد","location":"7727 لبيد بن ربيعة، الزهرة، الرياض 12984 2915،","arLocation":null,"phone":null,"rate":4.3,"reviews":39,"lat":24.576740899999997,"lng":46.6391948,"mapUrl":null,"placeUrl":null,"photoCount":null,"claimed":null,"businessStatus":null,"dateScraped":"2024-06-26"},{"id":"0x3e2f092b11e36327:0x1ec44b625e99d3b7","status":"stable","name":"باسكن روبنز","type":"Ice cream shop","district":"غير محدد","location":"7707 Al Hair Rd, 2308, Al Aziziyah, 2308، Riyadh 14515","arLocation":"7707 Al Hair Rd, 2308، العزيزية، 2308، الرياض 14515","phone":null,"rate":3.9,"reviews":69,"lat":24.577042,"lng":46.7496807,"mapUrl":null,"placeUrl":null,"photoCount":null,"claimed":null,"businessStatus":null,"dateScraped":"2024-06-26"},{"id":"0x3e2f7b018d368217:0x67c85d4f77af3e4c","status":"stable","name":"بزورية الشهباء للمنتجات السورية","type":"Grocery store","district":"غير محدد","location":"HQJ3+5FG, Mohammad Rashid Rida, Al Aziziyah, Riyadh 14515","arLocation":"HQJ3+5FG، محمد رشيد رضا، العزيزية، الرياض 14515","phone":"0533265720","rate":4.0,"reviews":42,"lat":24.580441099999998,"lng":46.7537121,"mapUrl":null,"placeUrl":null,"photoCount":null,"claimed":null,"businessStatus":null,"dateScraped":"2024-06-26"},{"id":"0x3e2f09cafdffbad1:0xe85848b8d9b3ed18","status":"stable","name":"حلويات بيوت الوناسة.العزيزيه","type":"Store","district":"غير محدد","location":"8445 طريق فتح مكة, Ad Dar Al Baida، 2707, Riyadh 14517","arLocation":"8445 طريق فتح مكة، الدار البيضاء، 2707، الرياض 14517","phone":"0590664914","rate":3.7,"reviews":19,"lat":24.577601299999998,"lng":46.792245699999995,"mapUrl":null,"placeUrl":null,"photoCount":null,"claimed":null,"businessStatus":null,"dateScraped":"2024-06-26"},{"id":"0x3e2f198ce619258f:0xe8f0f17268a982cb","status":"stable","name":"تموينات بوادر نجد","type":"Supermarket","district":"غير محدد","location":"4507 بلال بن رباح، طويق، الرياض 13791 7890،","arLocation":null,"phone":"0508660727","rate":2.7,"reviews":3,"lat":24.5815248,"lng":46.5255167,"mapUrl":null,"placeUrl":null,"photoCount":null,"claimed":null,"businessStatus":null,"dateScraped":"2024-06-26"},{"id":"0x3e2f192bce45a569:0xd1e3d45867fb2f01","status":"stable","name":"بوفية كدادين","type":"Ice cream shop","district":"غير محدد","location":"2776 6883 Bilal Ibn Rabah, Tuwaiq, Riyadh 14923","arLocation":"2776 6883 بلال بن رباح، طويق، الرياض 14923","phone":"0572099337","rate":5.0,"reviews":3,"lat":24.5811313,"lng":46.5374027,"mapUrl":null,"placeUrl":null,"photoCount":null,"claimed":null,"businessStatus":null,"dateScraped":"2024-06-26"},{"id":"0x3e2f19a5b27d3053:0x3abeb59ead01c801","status":"stable","name":"أسواق القرية العليا للمواد الغذائية","type":"Supermarket","district":"غير محدد","location":"7405 خديجة بنت خويلد، حي طويق، RKTA3691، 3691, Riyadh 14922","arLocation":null,"phone":"0530152798","rate":4.4,"reviews":10,"lat":24.5841797,"lng":46.5727297,"mapUrl":null,"placeUrl":null,"photoCount":null,"claimed":null,"businessStatus":null,"dateScraped":"2024-06-26"},{"id":"0x3e2f19d1088668df:0x7f59f6ab4985141b","status":"stable","name":"تموينات بن هلمان","type":"Supermarket","district":"غير محدد","location":"HHMF+RMJ, Tuwaiq, Riyadh 14914","arLocation":"HHMF+RMJ، طويق، الرياض 14914","phone":"0509518911","rate":2.6,"reviews":5,"lat":24.5845824,"lng":46.574137199999996,"mapUrl":null,"placeUrl":null,"photoCount":null,"claimed":null,"businessStatus":null,"dateScraped":"2024-06-26"},{"id":"0x3e2f1befee782db7:0xb3e5e293d4f8d981","status":"stable","name":"أسواق ومخابز كود الاغذية","type":"Supermarket","district":"غير محدد","location":"RIUB6489, 2790 Ibn Al Qourtoubi, 6489، Riyadh 12978","arLocation":"RIUB6489، 2790 ابن القرطبي، 6489، الرياض 12978","phone":"0539585278","rate":4.2,"reviews":25,"lat":24.5811372,"lng":46.602664999999995,"mapUrl":null,"placeUrl":null,"photoCount":null,"claimed":null,"businessStatus":null,"dateScraped":"2024-06-26"},{"id":"0x3e2f1b937c6b73db:0x23b6258108cd89e7","status":"stable","name":"Othaim Markets","type":"Supermarket","district":"غير محدد","location":"شارع الشيخ محمد عبد اللطيف, As Suwaidi Al Gharabi, Riyadh 12991","arLocation":"شارع الشيخ محمد عبد اللطيف, السويدي الغربي، الرياض 12991","phone":"920000702","rate":4.2,"reviews":1022,"lat":24.581357999999998,"lng":46.617996,"mapUrl":null,"placeUrl":null,"photoCount":null,"claimed":null,"businessStatus":null,"dateScraped":"2024-06-26"},{"id":"0x3e2f10065e2e42f9:0xa1772177c394b0d4","status":"stable","name":"باسكن روبنز","type":"Ice cream shop","district":"غير محدد","location":"2509 Al Souweidi Al Aam, As Suwaidi, Riyadh 12795","arLocation":"2509 السويدي العام، السويدي، الرياض 12795","phone":"0114035929","rate":3.9,"reviews":118,"lat":24.5841511,"lng":46.6631092,"mapUrl":null,"placeUrl":null,"photoCount":null,"claimed":null,"businessStatus":null,"dateScraped":"2024-06-26"},{"id":"0x3e2f11277b7e9099:0xa34410eca4d5f100","status":"stable","name":"بقالة عروض البركة","type":"Supermarket","district":"غير محدد","location":"Shubra, Riyadh 12793","arLocation":"شبرا، الرياض 12793","phone":"0556112215","rate":4.0,"reviews":4,"lat":24.58511,"lng":46.6780495,"mapUrl":null,"placeUrl":null,"photoCount":null,"claimed":null,"businessStatus":null,"dateScraped":"2024-06-26"},{"id":"0x3e2f0ffb1f6ca2c7:0xd57048db512bce44","status":"stable","name":"Saud Sweets","type":"Candy store","district":"غير محدد","location":"شارع العباد, Shubra, Riyadh 12793","arLocation":"شارع العباد، شبرا، الرياض 12793","phone":"0507522285","rate":4.0,"reviews":163,"lat":24.5849759,"lng":46.677837,"mapUrl":null,"placeUrl":null,"photoCount":null,"claimed":null,"businessStatus":null,"dateScraped":"2024-06-26"},{"id":"0x3e2f0fddd840468f:0xe2fc1c5b1f350a36","status":"stable","name":"تموينات عروض شبرا","type":"Supermarket","district":"غير محدد","location":"Al Ibbad, Shubra, Riyadh 12798","arLocation":"ال عباد، شبرا، الرياض 12798","phone":"0553087078","rate":4.3,"reviews":6,"lat":24.5853342,"lng":46.6788939,"mapUrl":null,"placeUrl":null,"photoCount":null,"claimed":null,"businessStatus":null,"dateScraped":"2024-06-26"},{"id":"0x3e2f0f792f5a8665:0x97429da494572c2f","status":"stable","name":"Juice Day","type":"Juice shop","district":"غير محدد","location":"7723, 4121-4211 ال عباد، الرياض 12793،, Riyadh 12798","arLocation":null,"phone":"0533579955","rate":3.1,"reviews":43,"lat":24.5852984,"lng":46.6790399,"mapUrl":null,"placeUrl":null,"photoCount":null,"claimed":null,"businessStatus":null,"dateScraped":"2024-06-26"},{"id":"0x3e2f0fec527f3a97:0x862a37f3e5dc289c","status":"stable","name":"قرصان المسعود","type":"Bakery","district":"غير محدد","location":"HMMP+WG6، شارع الشيخ محمد بن عبداللطيف بن عبدالرحمن، حي شبرا, Ad Duraihimiyah, Riyadh 12797","arLocation":"HMMP+WG6، شارع الشيخ محمد بن عبداللطيف بن عبدالرحمن، حي شبرا، الدريهمية، الرياض 12797","phone":"0509992463","rate":4.3,"reviews":22,"lat":24.584785099999998,"lng":46.6862561,"mapUrl":null,"placeUrl":null,"photoCount":null,"claimed":null,"businessStatus":null,"dateScraped":"2024-06-26"},{"id":"0x3e2f0fece904cc85:0x54ee07857421f23f","status":"stable","name":"قمة السلة للمواد الغذائية","type":"Supermarket","district":"غير محدد","location":"Southern Ring Branch Rd, حي نمار، Riyadh 12797","arLocation":"الطريق الدائري الجنوبي الفرعي، حي نمار، الرياض 12797","phone":"0112885093","rate":4.2,"reviews":150,"lat":24.5841165,"lng":46.688596399999994,"mapUrl":null,"placeUrl":null,"photoCount":null,"claimed":null,"businessStatus":null,"dateScraped":"2024-06-26"},{"id":"0x3e2f0980d39b59e7:0xed8e05a47b72a245","status":"stable","name":"ايسكريم شيخة","type":"Ice cream shop","district":"غير محدد","location":"4815 Soufian Ibn Aouf, Al Aziziyah، 8461, Riyadh 14514","arLocation":"4815 سفيان بن عوف، العزيزية، 8461، الرياض 14514","phone":null,"rate":4.7,"reviews":3,"lat":24.5839242,"lng":46.7742149,"mapUrl":null,"placeUrl":null,"photoCount":null,"claimed":null,"businessStatus":null,"dateScraped":"2024-06-26"},{"id":"0x3e2f091b7f755967:0x435e36b1b9c0d8ce","status":"stable","name":"تموينات مفرح المخفضة","type":"Grocery store","district":"غير محدد","location":"HQMF+RR5, Soufian Ibn Aouf, Al Aziziyah, Riyadh 14514","arLocation":"HQMF+RR5، سفيان بن عوف، العزيزية، الرياض 14514","phone":"0501720633","rate":4.1,"reviews":186,"lat":24.584510299999998,"lng":46.7745961,"mapUrl":null,"placeUrl":null,"photoCount":null,"claimed":null,"businessStatus":null,"dateScraped":"2024-06-26"},{"id":"0x3e2f0908b3f3a329:0xde3899517b0e6d3c","status":"stable","name":"أسواق ومخابز الهزاز","type":"Supermarket","district":"غير محدد","location":"RMAA6725, 6725 Al Aziziah Rd, 2743، حي العزيزية، Riyadh 14513","arLocation":"RMAA6725، 6725 طريق العزيزية الفرعي، 2743، حي العزيزية، الرياض 14513","phone":"0500940350","rate":3.5,"reviews":820,"lat":24.5813651,"lng":46.7820809,"mapUrl":null,"placeUrl":null,"photoCount":null,"claimed":null,"businessStatus":null,"dateScraped":"2024-06-26"},{"id":"0x3e2f18ff8067f127:0xe909ece17bf22ea5","status":"stable","name":"Kuwait markets","type":"Supermarket","district":"غير محدد","location":"3218 خديجة بنت خويلد, Tuwaiq, Riyadh 14912","arLocation":"3218 خديجة بنت خويلد، طويق، الرياض 14912","phone":null,"rate":4.1,"reviews":462,"lat":24.5862464,"lng":46.5525686,"mapUrl":null,"placeUrl":null,"photoCount":null,"claimed":null,"businessStatus":null,"dateScraped":"2024-06-26"},{"id":"0x3e2f192539d80e3d:0xe176977e3db7dc21","status":"stable","name":"تموينات الخيبري","type":"Supermarket","district":"غير محدد","location":"طويق،، 3997 خديجة بنت خويلد، RKTA3997، 7433، حي, Riyadh 14923","arLocation":null,"phone":"0507594161","rate":4.8,"reviews":5,"lat":24.5859587,"lng":46.5494784,"mapUrl":null,"placeUrl":null,"photoCount":null,"claimed":null,"businessStatus":null,"dateScraped":"2024-06-26"},{"id":"0x3e2f19def159b4e7:0xcbc14c5239cef22b","status":"stable","name":"فوال شلال رؤية الابداع","type":"Breakfast restaurant","district":"غير محدد","location":"حي, 6357 شارع اسماء بنت ابي بكر، 4481، العريجاء الغربية، الرياض 14913،","arLocation":null,"phone":null,"rate":3.9,"reviews":20,"lat":24.5870777,"lng":46.5854748,"mapUrl":null,"placeUrl":null,"photoCount":null,"claimed":null,"businessStatus":null,"dateScraped":"2024-06-26"},{"id":"0x3e2f1b0032fa3a31:0xf65a0bb25961d34a","status":"stable","name":"Othaim Markets","type":"Supermarket","district":"غير محدد","location":"Western Ring Rd, الفرعي، Riyadh 14921","arLocation":"الطريق الدائري الغربي، الفرعي، الرياض 14921","phone":"920000702","rate":3.1,"reviews":47,"lat":24.5867477,"lng":46.5969215,"mapUrl":null,"placeUrl":null,"photoCount":null,"claimed":null,"businessStatus":null,"dateScraped":"2024-06-26"},{"id":"0x3e2f1a23106a467f:0x113098e1939bf874","status":"stable","name":"تموينات مؤسسة عبدالله حمد البيشي","type":"Supermarket","district":"غير محدد","location":"حي, Bilal Ibn Rabah, Aluraija Al Gharbiyah, Riyadh 12977","arLocation":"حي, بلال بن رباح، العريجاء الغربية، الرياض 12977","phone":"0532084165","rate":3.6,"reviews":40,"lat":24.587687499999998,"lng":46.6013125,"mapUrl":null,"placeUrl":null,"photoCount":null,"claimed":null,"businessStatus":null,"dateScraped":"2024-06-26"},{"id":"0x3e2f1a663e51b389:0x613e9f7d4165dd23","status":"stable","name":"Baskin Robbins","type":"Ice cream shop","district":"غير محدد","location":"HJQF+J83, Hamzah Ibn Abd Al Mouttaleb, Aluraija Al Gharbiyah, Riyadh 12976","arLocation":"HJQF+J83، شارع حمزة بن عبدالمطلب، العريجاء الغربية، الرياض 12976","phone":"0114035739","rate":3.8,"reviews":205,"lat":24.5890123,"lng":46.6233004,"mapUrl":null,"placeUrl":null,"photoCount":null,"claimed":null,"businessStatus":null,"dateScraped":"2024-06-26"},{"id":"0x3e2f1a666ce3fe65:0x66acc36c4b7ef3df","status":"stable","name":"McDonald's","type":"Restaurant","district":"غير محدد","location":"Al Gharbiya, Aluraija Al Gharbiyah, Riyadh 12976","arLocation":"Al Gharbiya, العريجاء الغربية، الرياض 12976","phone":"8001212345","rate":3.8,"reviews":2632,"lat":24.588635,"lng":46.623655,"mapUrl":null,"placeUrl":null,"photoCount":null,"claimed":null,"businessStatus":null,"dateScraped":"2024-06-26"},{"id":"0x3e2f1b29ed93cfef:0xf18482fc1c5a7629","status":"stable","name":"مزايا الريان للاكلات الهندية தென்னிந்திய உணவகம்","type":"Southeast Asian restaurant","district":"غير محدد","location":"شارع Hamzah Ibn Abd Al Mouttaleb, Dhahrat Al Badi'ah, Riyadh 12982","arLocation":"شارع شارع حمزة بن عبدالمطلب، ظهرة البديعة، الرياض 12982","phone":null,"rate":4.0,"reviews":11,"lat":24.5872915,"lng":46.625549299999996,"mapUrl":null,"placeUrl":null,"photoCount":null,"claimed":null,"businessStatus":null,"dateScraped":"2024-06-26"},{"id":"0x3e2f1a9adf9a7b2b:0x7a116a8a613d49a6","status":"stable","name":"Al Fozan Gas Station","type":"Gas station","district":"غير محدد","location":"3225 Al Cheikh Abd Al Aziz Ibn Muhammad Ibn Ali, 8931, Az Zahrah, Riyadh 12983","arLocation":"3225 الشيخ عبد العزيز بن محمد بن علي، 8931، الزهرة، الرياض 12983","phone":"0599000392","rate":3.6,"reviews":166,"lat":24.587558899999998,"lng":46.642451699999995,"mapUrl":null,"placeUrl":null,"photoCount":null,"claimed":null,"businessStatus":null,"dateScraped":"2024-06-26"},{"id":"0x3e2f1a65d21757e7:0xf3c45efa8ead615f","status":"stable","name":"Panda","type":"Supermarket","district":"غير محدد","location":"12991 Hamzah Ibn Abd Al Mouttaleb, As Suwaidi Al Gharabi, Riyadh 12991","arLocation":"12991 شارع حمزة بن عبدالمطلب، السويدي الغربي، الرياض 12991","phone":null,"rate":3.9,"reviews":1892,"lat":24.587196499999997,"lng":46.6246891,"mapUrl":null,"placeUrl":null,"photoCount":null,"claimed":null,"businessStatus":null,"dateScraped":"2024-06-26"},{"id":"0x3e2f1b6a0701a2d3:0x6b3099427feeffc2","status":"stable","name":"بستاني للشوكلا","type":"Chocolate shop","district":"غير محدد","location":"8832 عائشة بنت أبي بكر، الزهرة، الرياض 12983 4342 الرياض 12983, Riyadh 12983","arLocation":null,"phone":"0531383153","rate":4.3,"reviews":277,"lat":24.586687299999998,"lng":46.6533988,"mapUrl":null,"placeUrl":null,"photoCount":null,"claimed":null,"businessStatus":null,"dateScraped":"2024-06-26"},{"id":"0x3e2f1aa0bb747dc1:0x54a959988d47c247","status":"stable","name":"كنافة أصيل النابلسية","type":"Candy store","district":"غير محدد","location":"6473 Aishah Bint Abi Bakr, As Suwaidi, Riyadh 12788","arLocation":"6473 عائشة بنت أبي بكر، السويدي، الرياض 12788","phone":"0552122304","rate":4.4,"reviews":1049,"lat":24.585381599999998,"lng":46.6553001,"mapUrl":null,"placeUrl":null,"photoCount":null,"claimed":null,"businessStatus":null,"dateScraped":"2024-06-26"},{"id":"0x3e2f1b8efb771491:0xf6a609d9c121b7c6","status":"stable","name":"فول وفول","type":"Breakfast restaurant","district":"غير محدد","location":"3554 البلد الامين، السويدي، الرياض 12788 6805،","arLocation":null,"phone":"0504835429","rate":3.5,"reviews":13,"lat":24.588585899999998,"lng":46.659104799999994,"mapUrl":null,"placeUrl":null,"photoCount":null,"claimed":null,"businessStatus":null,"dateScraped":"2024-06-26"},{"id":"0x3e2f0ffbf755a9fb:0xe27487d01f3c8f31","status":"stable","name":"روائع الرجبة للمواد الغذائية","type":"Supermarket","district":"غير محدد","location":"Abd Al Malek Ibn Hisham, As Suwaidi, Riyadh 12793","arLocation":"عبدالملك بن هشام، السويدي، الرياض 12793","phone":"0551553477","rate":3.8,"reviews":142,"lat":24.5867535,"lng":46.675657799999996,"mapUrl":null,"placeUrl":null,"photoCount":null,"claimed":null,"businessStatus":null,"dateScraped":"2024-06-26"},{"id":"0x3e2f08df117390ef:0x6bd920e1cd108e42","status":"stable","name":"Panda Supermarket","type":"Supermarket","district":"غير محدد","location":"Al Nasir street - Azizia, Riyadh, Jubail","arLocation":null,"phone":"920027707","rate":4.0,"reviews":4217,"lat":24.5863245,"lng":46.7599093,"mapUrl":null,"placeUrl":null,"photoCount":null,"claimed":null,"businessStatus":null,"dateScraped":"2024-06-26"},{"id":"0x3e2f097090429315:0x9a436dcfdf437ba7","status":"stable","name":"تموينات نسمة العالم للمواد الغذائية","type":"Grocery store","district":"غير محدد","location":"Al Aziziyah، 8930 طريق العزيزية الفرعي، 5131، العزيزية، الرياض 14514، الرياض حي 14514","arLocation":null,"phone":"0510167156","rate":3.7,"reviews":26,"lat":24.587765599999997,"lng":46.777569799999995,"mapUrl":null,"placeUrl":null,"photoCount":null,"claimed":null,"businessStatus":null,"dateScraped":"2024-06-26"},{"id":"0x3e2fa7457c8434cf:0x7e04bddec89eab7e","status":"stable","name":"شاهي الكيف","type":"Coffee shop","district":"غير محدد","location":"Ad Difa، 2786، 7725, Riyadh 14318","arLocation":"الدفاع، 2786، 7725، الرياض 14318","phone":null,"rate":5.0,"reviews":3,"lat":24.5894394,"lng":46.8436093,"mapUrl":null,"placeUrl":null,"photoCount":null,"claimed":null,"businessStatus":null,"dateScraped":"2024-06-26"},{"id":"0x3e2f18fad0c3a057:0x429b00b315c6fa45","status":"stable","name":"Aldrees","type":"Gas station","district":"غير محدد","location":"Tuwaiq, Riyadh 14912","arLocation":"طويق، الرياض 14912","phone":"920002667","rate":3.9,"reviews":1513,"lat":24.5933139,"lng":46.547199899999995,"mapUrl":null,"placeUrl":null,"photoCount":null,"claimed":null,"businessStatus":null,"dateScraped":"2024-06-26"},{"id":"0x3e2f1b3608f34e8f:0x7d673d477dbf5007","status":"stable","name":"LUH LUH AL DOOQ SWEET","type":"Bakery","district":"غير محدد","location":"7791 Al Amir Musaid Ibn Abdul Rahman Ibn Faisal Rd, Aluraija Al Gharbiyah, حي, 3842, Riyadh 12975","arLocation":"7791 طريق الامير مساعد بن عبدالرحمن بن فيصل، العريجاء الغربية، حي, 3842, الرياض 12975","phone":"0576629309","rate":4.7,"reviews":10,"lat":24.5929362,"lng":46.6133739,"mapUrl":null,"placeUrl":null,"photoCount":null,"claimed":null,"businessStatus":null,"dateScraped":"2024-06-26"},{"id":"0x3e2f1b0018fd18b1:0xb96068304ab410ba","status":"stable","name":"قرصان","type":"Bakery","district":"غير محدد","location":"HMR6+5V6, Al Balad Al Amin, As Suwaidi, Riyadh 12788","arLocation":"HMR6+5V6، البلد الامين، السويدي، الرياض 12788","phone":null,"rate":5.0,"reviews":1,"lat":24.5904147,"lng":46.662138399999996,"mapUrl":null,"placeUrl":null,"photoCount":null,"claimed":null,"businessStatus":null,"dateScraped":"2024-06-26"},{"id":"0x3e2f1aa64ab77367:0x4e59297903598cdd","status":"stable","name":"Indian Restaurant","type":"Indian restaurant","district":"غير محدد","location":"3590 Al Balad Al Amin, As Suwaidi, Riyadh 12788","arLocation":"3590 البلد الامين، السويدي، الرياض 12788","phone":null,"rate":3.9,"reviews":256,"lat":24.5889065,"lng":46.6594846,"mapUrl":null,"placeUrl":null,"photoCount":null,"claimed":null,"businessStatus":null,"dateScraped":"2024-06-26"},{"id":"0x3e2f0f7940235711:0xe86c88d2aaf07b53","status":"stable","name":"شاي ابو لهب","type":"Cafe","district":"غير محدد","location":"HMRF+534, As Suwaidi, Riyadh 12786","arLocation":"HMRF+534، السويدي، الرياض 12786","phone":"0540804852","rate":3.7,"reviews":3,"lat":24.5903971,"lng":46.672695,"mapUrl":null,"placeUrl":null,"photoCount":null,"claimed":null,"businessStatus":null,"dateScraped":"2024-06-26"},{"id":"0x3e2f0fdce776c345:0x13e3ab809ccfc685","status":"stable","name":"مخابز وتموينات سلة الحجاز","type":"Supermarket","district":"غير محدد","location":"2876 Prince Abdullah Ibn Abdulrahman Ibn Faisal, Utaiqah, 6570، Riyadh 12673","arLocation":"2876 الأمير عبد الله بن عبد الرحمن بن فيصل، عتيقة، 6570، الرياض 12673","phone":"0559127298","rate":4.4,"reviews":8,"lat":24.590469,"lng":46.711649,"mapUrl":null,"placeUrl":null,"photoCount":null,"claimed":null,"businessStatus":null,"dateScraped":"2024-06-26"},{"id":"0x3e2f0f770b2633ed:0x2d10ca0fdd20add4","status":"stable","name":"حلويات المملكة","type":"Dessert shop","district":"غير محدد","location":"الأمير عبد الله بن عبد الرحمن بن فيصل،, Riyadh","arLocation":null,"phone":"0549101621","rate":4.0,"reviews":55,"lat":24.5941002,"lng":46.7117696,"mapUrl":null,"placeUrl":null,"photoCount":null,"claimed":null,"businessStatus":null,"dateScraped":"2024-06-26"},{"id":"0x3e2f0f37beb2162b:0x2d823b7cf7970861","status":"stable","name":"Office Saad Soliman Shuweir Factory Co.","type":"Corporate office","district":"غير محدد","location":"2239 الطريق الدائري الجنوبي الفرعي، العزيزية، الرياض 14512 7498 Southern Ring Branch Rd, 7498, Al Aziziyah, Riyadh 14512","arLocation":"2239 الطريق الدائري الجنوبي الفرعي، العزيزية، الرياض 14512 7498 الطريق الدائري الجنوبي الفرعي، 7498، العزيزية، الرياض 14512","phone":"0112137777","rate":4.5,"reviews":6,"lat":24.5944184,"lng":46.7396734,"mapUrl":null,"placeUrl":null,"photoCount":null,"claimed":null,"businessStatus":null,"dateScraped":"2024-06-26"},{"id":"0x3e2f09a714f81385:0xf4a788be917bc768","status":"stable","name":"ثلاجة شريف باكرمان للتجاره مستلزمات حلويات و مخابز مواد غذائية","type":"Tea store","district":"غير محدد","location":"HQV3+R7W، العزيزية Unnamed Road, Riyadh 14512","arLocation":null,"phone":null,"rate":4.4,"reviews":34,"lat":24.594614,"lng":46.753198999999995,"mapUrl":null,"placeUrl":null,"photoCount":null,"claimed":null,"businessStatus":null,"dateScraped":"2024-06-26"},{"id":"0x3e2f09129f199ccd:0xb851576ccaf909c4","status":"stable","name":"Tripple Rose Super Market","type":"Supermarket","district":"غير محدد","location":"near SAPTCO bus station, Al Basala, street, Riyadh 14512","arLocation":null,"phone":"0556512940","rate":3.3,"reviews":3,"lat":24.5941467,"lng":46.751332399999995,"mapUrl":null,"placeUrl":null,"photoCount":null,"claimed":null,"businessStatus":null,"dateScraped":"2024-06-26"},{"id":"0x3e2f08da50587e9b:0x84d4c04c53533113","status":"stable","name":"Baskin Robbins","type":"Ice cream shop","district":"غير محدد","location":"HQR5+6QF, Al Shabab, Al Aziziyah, Riyadh 14511","arLocation":"HQR5+6QF، الشباب، العزيزية، الرياض 14511","phone":"920013120","rate":4.1,"reviews":357,"lat":24.590565299999998,"lng":46.7594223,"mapUrl":null,"placeUrl":null,"photoCount":null,"claimed":null,"businessStatus":null,"dateScraped":"2024-06-26"},{"id":"0x3e2f08ce9ee81c77:0xda77b9dfa81800ad","status":"stable","name":"ثلاجة القلمون (الوهيبي سابقا)","type":"Supermarket","district":"غير محدد","location":"3595 البسالة, Al Aziziyah, Riyadh 14512","arLocation":"3595 البسالة، العزيزية، الرياض 14512","phone":"0557266126","rate":4.0,"reviews":188,"lat":24.5944178,"lng":46.752920599999996,"mapUrl":null,"placeUrl":null,"photoCount":null,"claimed":null,"businessStatus":null,"dateScraped":"2024-06-26"},{"id":"0x3e2f0926e6db289b:0x7c37bfc72743093b","status":"stable","name":"Amed Al Kebdah","type":"Breakfast restaurant","district":"غير محدد","location":"Al Aziziyah, Riyadh 14511","arLocation":"العزيزية، الرياض 14511","phone":"0508228059","rate":3.9,"reviews":94,"lat":24.5903125,"lng":46.7595625,"mapUrl":null,"placeUrl":null,"photoCount":null,"claimed":null,"businessStatus":null,"dateScraped":"2024-06-26"},{"id":"0x3e2f08e2a56070af:0x77d10c89515bea9d","status":"stable","name":"Baskin Robbins","type":"Ice cream shop","district":"غير محدد","location":"4923 Suwaid Ibn Ali, Al Aziziyah, Riyadh 14514","arLocation":"4923 سويد بن علي، العزيزية، الرياض 14514","phone":null,"rate":4.0,"reviews":502,"lat":24.5903589,"lng":46.7761954,"mapUrl":null,"placeUrl":null,"photoCount":null,"claimed":null,"businessStatus":null,"dateScraped":"2024-06-26"},{"id":"0x3e2f1982d22e04d1:0xf5022e001e4bae8f","status":"stable","name":"Herfy","type":"Restaurant","district":"غير محدد","location":"4304 Ibn Hazem, 7290, Aluraija Al Gharbiyah, Riyadh 14913","arLocation":"4304 ابن حزم، 7290، العريجاء الغربية، الرياض 14913","phone":"920001111","rate":3.8,"reviews":862,"lat":24.59547,"lng":46.5839661,"mapUrl":null,"placeUrl":null,"photoCount":null,"claimed":null,"businessStatus":null,"dateScraped":"2024-06-26"},{"id":"0x3e2f1982e83914f5:0xb56f1397051ded6e","status":"stable","name":"اسواق متجر البركه للمواد الغذائيه و الخضار والفواكه","type":"Supermarket","district":"غير محدد","location":"HHWM+FX4, Aluraija Al Gharbiyah, Riyadh 14913","arLocation":"HHWM+FX4، العريجاء الغربية، الرياض 14913","phone":"0114335187","rate":3.9,"reviews":136,"lat":24.596127499999998,"lng":46.584950199999994,"mapUrl":null,"placeUrl":null,"photoCount":null,"claimed":null,"businessStatus":null,"dateScraped":"2024-06-26"},{"id":"0x3e2f1a3083003747:0xc3ad06e5bd10156b","status":"stable","name":"Othaim Markets","type":"Supermarket","district":"غير محدد","location":"Al Imam Abi Hanifah, Aluraija Al Gharbiyah, Riyadh 12966","arLocation":"شارع الإمام أبي حنيفة، العريجاء الغربية، الرياض 12966","phone":"920000702","rate":4.0,"reviews":2248,"lat":24.5959449,"lng":46.6059304,"mapUrl":null,"placeUrl":null,"photoCount":null,"claimed":null,"businessStatus":null,"dateScraped":"2024-06-26"},{"id":"0x3e2f1b002ceb5a9d:0x2d1d7f00d44bf33d","status":"stable","name":"تموينات فيصل نواف المركزيه","type":"Convenience store","district":"غير محدد","location":"RIUA4308، 8112 Al Amir Musaid Ibn Abdul Rahman Ibn Faisal Rd، حي العريجاء الغربي، 4308, Riyadh 12975","arLocation":"RIUA4308، 8112 طريق الامير مساعد بن عبدالرحمن بن فيصل، حي العريجاء الغربي، 4308، الرياض 12975","phone":"0112444723","rate":5.0,"reviews":1,"lat":24.5956482,"lng":46.6179296,"mapUrl":null,"placeUrl":null,"photoCount":null,"claimed":null,"businessStatus":null,"dateScraped":"2024-06-26"},{"id":"0x3e2f1a44782d1c81:0x4ec91f74e835ded9","status":"stable","name":"ميد","type":"Grocery store","district":"غير محدد","location":"Al Uraija, Riyadh 12974","arLocation":"العريجاء، الرياض 12974","phone":"0114778144","rate":3.5,"reviews":201,"lat":24.5959345,"lng":46.6192048,"mapUrl":null,"placeUrl":null,"photoCount":null,"claimed":null,"businessStatus":null,"dateScraped":"2024-06-26"},{"id":"0x3e2f1be811bb007d:0x681b00ccfb25557d","status":"stable","name":"ساتر مجالس تانجد کانب جادھد","type":"Furniture store","district":"غير محدد","location":"RIUE3576 6808 Ibn Al Jaouzi، 3576, Riyadh 12974","arLocation":"RIUE3576 6808 ابن الجوزي، 3576، الرياض 12974","phone":"0561914712","rate":3.7,"reviews":3,"lat":24.5958598,"lng":46.6304763,"mapUrl":null,"placeUrl":null,"photoCount":null,"claimed":null,"businessStatus":null,"dateScraped":"2024-06-26"},{"id":"0x3e2f1ba49cc4a605:0x73abb30aab835daf","status":"stable","name":"اسواق و مخابز تفانين المستهلك","type":"Supermarket","district":"غير محدد","location":"Aishah Bint Abi Bakr, طريق معاوية بن ابي سفيان, Riyadh 12784","arLocation":"عائشة بنت أبي بكر، طريق معاوية بن ابي سفيان، الرياض 12784","phone":"0506547799","rate":4.1,"reviews":225,"lat":24.598331899999998,"lng":46.6461964,"mapUrl":null,"placeUrl":null,"photoCount":null,"claimed":null,"businessStatus":null,"dateScraped":"2024-06-26"},{"id":"0x3e2f055833061b57:0x7dddbe584436c352","status":"stable","name":"McDonald's","type":"Restaurant","district":"غير محدد","location":"Al Souweidi, Sultanah, Riyadh 12785","arLocation":"Al Souweidi, سلطانة، الرياض 12785","phone":"8001212345","rate":3.8,"reviews":4365,"lat":24.595997,"lng":46.681118999999995,"mapUrl":null,"placeUrl":null,"photoCount":null,"claimed":null,"businessStatus":null,"dateScraped":"2024-06-26"},{"id":"0x3e2f0558484f6f05:0x5bdd9c3a317dffb4","status":"stable","name":"Hardee's","type":"Restaurant","district":"غير محدد","location":"شارع السويدي العام, As Suwaidi, Riyadh 12785","arLocation":"شارع السويدي العام، السويدي، الرياض 12785","phone":"920001213","rate":3.8,"reviews":832,"lat":24.5962027,"lng":46.6818162,"mapUrl":null,"placeUrl":null,"photoCount":null,"claimed":null,"businessStatus":null,"dateScraped":"2024-06-26"},{"id":"0x3e2f052dcb4263a5:0xb9d607b1cc4cbc4e","status":"stable","name":"أسواق ميكال","type":"Supermarket","district":"غير محدد","location":"HMXP+32P, As Suwaidi, Riyadh 12792","arLocation":"HMXP+32P، السويدي، الرياض 12792","phone":null,"rate":4.2,"reviews":100,"lat":24.5977146,"lng":46.6850728,"mapUrl":null,"placeUrl":null,"photoCount":null,"claimed":null,"businessStatus":null,"dateScraped":"2024-06-26"},{"id":"0x3e2f0f88e728b903:0x88cd04e017e9dff","status":"stable","name":"Baskin' Robbins","type":"Ice cream shop","district":"غير محدد","location":"HMWW+HWC, Sultanah, Ad Duraihimiyah, Riyadh 12791","arLocation":"HMWW+HWC، سلطانه، الدريهمية، الرياض 12791","phone":"0114035792","rate":4.0,"reviews":203,"lat":24.5964362,"lng":46.697267,"mapUrl":null,"placeUrl":null,"photoCount":null,"claimed":null,"businessStatus":null,"dateScraped":"2024-06-26"},{"id":"0x3e2f0f2f14986607:0x34d7fdea4048e50a","status":"stable","name":"تموينات سلة التنوع","type":"Supermarket","district":"غير محدد","location":"7258 سلاسل، 2994، اليمامة، الرياض 12674،","arLocation":null,"phone":null,"rate":2.3,"reviews":3,"lat":24.596733,"lng":46.713021,"mapUrl":null,"placeUrl":null,"photoCount":null,"claimed":null,"businessStatus":null,"dateScraped":"2024-06-26"},{"id":"0x3e2f0f77811af01b:0xe5795e9232aebef9","status":"stable","name":"Supermarket Hamdi","type":"Supermarket","district":"غير محدد","location":"2825, Utaiqah، 7094 الامير عبد الله بن عبد الرحمن بن فيصل،, Riyadh 12673","arLocation":"2825، عتيقة، 7094 الامير عبد الله بن عبد الرحمن بن فيصل،، الرياض 12673","phone":"0551111587","rate":4.3,"reviews":34,"lat":24.5951058,"lng":46.711259,"mapUrl":null,"placeUrl":null,"photoCount":null,"claimed":null,"businessStatus":null,"dateScraped":"2024-06-26"},{"id":"0x3e2f0f482d4905a3:0x865f54530d4b4a43","status":"stable","name":"مصنع تمور واحة القصيم","type":"Natural goods store","district":"غير محدد","location":"Southern Ring Branch Rd, Al Aziziyah, Riyadh 14512","arLocation":"الطريق الدائري الجنوبي الفرعي، العزيزية، الرياض 14512","phone":"0547217349","rate":4.1,"reviews":199,"lat":24.5966252,"lng":46.742899099999995,"mapUrl":null,"placeUrl":null,"photoCount":null,"claimed":null,"businessStatus":null,"dateScraped":"2024-06-26"},{"id":"0x3e2f09c1c4f120bf:0xec9d556734ff46aa","status":"stable","name":"أسواق سما هلا","type":"Supermarket","district":"غير محدد","location":"3684 Al Basala, 7599, Al Aziziyah، 3684 البسالة، العزيزية الرياض 14512, Riyadh 14512","arLocation":"3684 البسالة، 7599، العزيزية، 3684 البسالة، العزيزية الرياض 14512، الرياض 14512","phone":null,"rate":4.0,"reviews":50,"lat":24.5954496,"lng":46.753982,"mapUrl":null,"placeUrl":null,"photoCount":null,"claimed":null,"businessStatus":null,"dateScraped":"2024-06-26"},{"id":"0x3e2f08c2d4d9b677:0xbdeee89aa6b3afdb","status":"stable","name":"تموينات لبيع المواد الغذائية","type":"Supermarket","district":"غير محدد","location":"HQW7+4XW, Al Aziziyah, Riyadh 14511","arLocation":"HQW7+4XW، العزيزية، الرياض 14511","phone":"0114385817","rate":3.4,"reviews":14,"lat":24.595364099999998,"lng":46.7649397,"mapUrl":null,"placeUrl":null,"photoCount":null,"claimed":null,"businessStatus":null,"dateScraped":"2024-06-26"},{"id":"0x3e2f094e41850c49:0x39a8b6fa5cdf9415","status":"stable","name":"عجوة الخليج","type":"Produce market","district":"غير محدد","location":"7586 الطريق الدائري الجنوبي، الفرعي، العزيزية، 2383, Riyadh 14512","arLocation":null,"phone":"0112068548","rate":4.1,"reviews":200,"lat":24.5951693,"lng":46.7535907,"mapUrl":null,"placeUrl":null,"photoCount":null,"claimed":null,"businessStatus":null,"dateScraped":"2024-06-26"},{"id":"0x3e2f09ac9e5f4711:0x16edbc4dd4b648a8","status":"stable","name":"كبدة الانتصار","type":"Breakfast restaurant","district":"غير محدد","location":"Muaz Ibn Jabal, Al Aziziyah, Riyadh 14511","arLocation":"معاذ بن جبل، العزيزية، الرياض 14511","phone":"0558515934","rate":5.0,"reviews":5,"lat":24.5975665,"lng":46.7740478,"mapUrl":null,"placeUrl":null,"photoCount":null,"claimed":null,"businessStatus":null,"dateScraped":"2024-06-26"},{"id":"0x3e2f09007af71fb1:0xbc860481f0fde931","status":"stable","name":"تموينات ساس الهنا","type":"Supermarket","district":"غير محدد","location":"4476، 7095, Riyadh 14511","arLocation":"4476، 7095، الرياض 14511","phone":"0552041373","rate":5.0,"reviews":2,"lat":24.5969303,"lng":46.7815757,"mapUrl":null,"placeUrl":null,"photoCount":null,"claimed":null,"businessStatus":null,"dateScraped":"2024-06-26"},{"id":"0x3e2f090058f94c09:0xe4d86606d5fdb1ea","status":"stable","name":"مخبز","type":"Bakery","district":"غير محدد","location":"حي المناخ، RNCB3613، 3613 ممر83، 7197, Riyadh 14313","arLocation":null,"phone":null,"rate":5.0,"reviews":1,"lat":24.598271699999998,"lng":46.8021223,"mapUrl":null,"placeUrl":null,"photoCount":null,"claimed":null,"businessStatus":null,"dateScraped":"2024-06-26"},{"id":"0x3e2f1bb502aedf83:0x6714ba4d6d904d8e","status":"stable","name":"أسواق ومخابز أركان الغذاء للتجارة","type":"Supermarket","district":"غير محدد","location":"3809 Abdallah Ibn Al Zoubeir, Aluraija Al Gharbiyah, حي 7007, Riyadh 12966","arLocation":"3809 شارع عبدالله بن الزبير، العريجاء الغربية، حي 7007, الرياض 12966","phone":null,"rate":4.1,"reviews":99,"lat":24.6002092,"lng":46.6008504,"mapUrl":null,"placeUrl":null,"photoCount":null,"claimed":null,"businessStatus":null,"dateScraped":"2024-06-26"},{"id":"0x3e2f1a2db6af7b13:0xb62ad5bb3466021d","status":"stable","name":"Balsharaf group","type":"Supermarket","district":"غير محدد","location":"JJ22+358, Aluraija Al Gharbiyah, Riyadh 12966","arLocation":"JJ22+358، العريجاء الغربية، الرياض 12966","phone":null,"rate":3.4,"reviews":431,"lat":24.6001644,"lng":46.600456199999996,"mapUrl":null,"placeUrl":null,"photoCount":null,"claimed":null,"businessStatus":null,"dateScraped":"2024-06-26"},{"id":"0x3e2f1baaef333341:0x115eb3cb58fbc2b0","status":"stable","name":"بوفية شطيرة وشاي","type":"Buffet restaurant","district":"غير محدد","location":"2071 حي, Al Uraija Al Wusta، RIUA7351، 7351 حمزة بن عبدالمطلب, Riyadh 12973","arLocation":"2071 حي، العريجاء الوسطى، RIUA7351، 7351 حمزة بن عبدالمطلب، الرياض 12973","phone":"0532036136","rate":4.4,"reviews":29,"lat":24.600807399999997,"lng":46.6156193,"mapUrl":null,"placeUrl":null,"photoCount":null,"claimed":null,"businessStatus":null,"dateScraped":"2024-06-26"},{"id":"0x3e2f1a94914f826d:0xf2d947a02d5485ef","status":"stable","name":"ابتكار العصير","type":"Juice shop","district":"غير محدد","location":"Dhahrat Al Badi'ah, Riyadh 12784","arLocation":"ظهرة البديعة، الرياض 12784","phone":"0562438038","rate":4.1,"reviews":113,"lat":24.599429699999998,"lng":46.6470293,"mapUrl":null,"placeUrl":null,"photoCount":null,"claimed":null,"businessStatus":null,"dateScraped":"2024-06-26"},{"id":"0x3e2f1b471f2c388b:0x63d478218a8f6bd7","status":"stable","name":"ARKAN SUPERMARCKET BADHIA","type":"Supermarket","district":"غير محدد","location":"AL BADI'AH, Dhahrat Al Badi'ah 12784","arLocation":null,"phone":"0576244285","rate":4.0,"reviews":4,"lat":24.601092899999998,"lng":46.650503799999996,"mapUrl":null,"placeUrl":null,"photoCount":null,"claimed":null,"businessStatus":null,"dateScraped":"2024-06-26"},{"id":"0x3e2f0550ee4631fb:0x73fb6b44837a940","status":"stable","name":"Sahel","type":"Gas station","district":"غير محدد","location":"Shaikh Abdullah Bin Mohammed Rd, Sultanah, Riyadh 12785","arLocation":"الشيخ عبدالله بن محمد، سلطانة، الرياض 12785","phone":"920010202","rate":3.8,"reviews":197,"lat":24.599473399999997,"lng":46.6786831,"mapUrl":null,"placeUrl":null,"photoCount":null,"claimed":null,"businessStatus":null,"dateScraped":"2024-06-26"},{"id":"0x3e2f055fdafbdc5b:0x94811da4fae0bab5","status":"stable","name":"Kudu - Sultana","type":"Restaurant","district":"غير محدد","location":"Sultanah, Riyadh 12777","arLocation":"سلطانة، الرياض 12777","phone":"920006999","rate":3.9,"reviews":590,"lat":24.5986925,"lng":46.689428899999996,"mapUrl":null,"placeUrl":null,"photoCount":null,"claimed":null,"businessStatus":null,"dateScraped":"2024-06-26"},{"id":"0x3e2f05629a8669e5:0xd00b729026768bd5","status":"stable","name":"Carrefour","type":"Supermarket","district":"غير محدد","location":"Suwaidi, As Suwaidi Al Am, Al Qasr Mall, Riyadh","arLocation":null,"phone":"8004414446","rate":4.1,"reviews":9715,"lat":24.600732999999998,"lng":46.699081,"mapUrl":null,"placeUrl":null,"photoCount":null,"claimed":null,"businessStatus":null,"dateScraped":"2024-06-26"},{"id":"0x3e2f0f81902a9943:0x440004b640225e3d","status":"stable","name":"شركة محمد سعيد بالبيد التجارية للمواد الغذائية بالجملة","type":"Supermarket","district":"غير محدد","location":"Abi Zakariya Ibn Al Awwam, Utaiqah, Riyadh 12671","arLocation":"ابي زكريا بن العوام، عتيقة، الرياض 12671","phone":null,"rate":4.1,"reviews":306,"lat":24.5993933,"lng":46.707459,"mapUrl":null,"placeUrl":null,"photoCount":null,"claimed":null,"businessStatus":null,"dateScraped":"2024-06-26"},{"id":"0x3e2f0562a27724bd:0x51e6232a67b92bcc","status":"stable","name":"McDonald's","type":"Restaurant","district":"غير محدد","location":"Qaser Mall, As Suwaidi, Riyadh 12791","arLocation":"Qaser Mall, السويدي، الرياض 12791","phone":"8001212345","rate":3.9,"reviews":897,"lat":24.601027,"lng":46.698564999999995,"mapUrl":null,"placeUrl":null,"photoCount":null,"claimed":null,"businessStatus":null,"dateScraped":"2024-06-26"},{"id":"0x3e2f0fd426815bcd:0x86ddefa872175c76","status":"stable","name":"أسواق الجملة","type":"Supermarket","district":"غير محدد","location":"2481 ابي زكريا بن العوام، عتيقة، الرياض 12671 7542،","arLocation":null,"phone":null,"rate":3.7,"reviews":23,"lat":24.599264899999998,"lng":46.7078613,"mapUrl":null,"placeUrl":null,"photoCount":null,"claimed":null,"businessStatus":null,"dateScraped":"2024-06-26"},{"id":"0x3e2f0f6664b7dbd1:0x1b8c31cbeb540061","status":"stable","name":"وادي المناس للمواد الغذائية","type":"Supermarket","district":"غير محدد","location":"JP34+3P3, Utaiqah, Riyadh 12671","arLocation":"JP34+3P3، عتيقة، الرياض 12671","phone":"0502676825","rate":5.0,"reviews":3,"lat":24.6026487,"lng":46.7067838,"mapUrl":null,"placeUrl":null,"photoCount":null,"claimed":null,"businessStatus":null,"dateScraped":"2024-06-26"},{"id":"0x3e2f0f17bc69e993:0x90727cfec3521de","status":"stable","name":"حبيب التمار","type":"Supermarket","district":"غير محدد","location":"2486، 7768 بداي بن مضيان، عتيقة، الرياض 12671 2486، 12671","arLocation":null,"phone":null,"rate":5.0,"reviews":5,"lat":24.601455899999998,"lng":46.7087344,"mapUrl":null,"placeUrl":null,"photoCount":null,"claimed":null,"businessStatus":null,"dateScraped":"2024-06-26"},{"id":"0x3e2f0f3120c3ba75:0x95ad354ef3f2433e","status":"stable","name":"الياف للتمور","type":"Natural goods store","district":"غير محدد","location":"JP25+JCJ, Baday Ibn Mudyan, Utaiqah, Riyadh 36341","arLocation":"JP25+JCJ، بداي بن مضيان، عتيقة، الرياض 36341","phone":"0560491442","rate":4.3,"reviews":30,"lat":24.6015956,"lng":46.708523799999995,"mapUrl":null,"placeUrl":null,"photoCount":null,"claimed":null,"businessStatus":null,"dateScraped":"2024-06-26"},{"id":"0x3e2f0f8089e4c663:0x25619ae500b040ce","status":"stable","name":"Bazuhair Candy Store Nuts and More","type":"Candy store","district":"غير محدد","location":"طريق الملك فهد الفرعي, Utaiqah, Riyadh 12671","arLocation":"طريق الملك فهد الفرعي، عتيقة، الرياض 12671","phone":"0561110949","rate":4.1,"reviews":87,"lat":24.6028274,"lng":46.7070235,"mapUrl":null,"placeUrl":null,"photoCount":null,"claimed":null,"businessStatus":null,"dateScraped":"2024-06-26"},{"id":"0x3e2f0f7f0e75c2df:0x557655a36008f861","status":"stable","name":"أسواق العثيم (الجملة) | Othaim Markets (wholesale)","type":"Supermarket","district":"غير محدد","location":"الحجاز, شارع الأمير عبد الله بن عبد الرحمن بن فيصل (شارع, Riyadh","arLocation":null,"phone":"920000702","rate":4.2,"reviews":1680,"lat":24.601857,"lng":46.710736999999995,"mapUrl":null,"placeUrl":null,"photoCount":null,"claimed":null,"businessStatus":null,"dateScraped":"2024-06-26"},{"id":"0x3e2f08b4d5eebce7:0x8fd26191488abdd5","status":"stable","name":"Othaim Markets","type":"Supermarket","district":"غير محدد","location":"الدايري الجنوبي مخرج 20 مقابل النقل الجماعي, Riyadh","arLocation":null,"phone":"920000702","rate":4.2,"reviews":2882,"lat":24.601387,"lng":46.748098999999996,"mapUrl":null,"placeUrl":null,"photoCount":null,"claimed":null,"businessStatus":null,"dateScraped":"2024-06-26"},{"id":"0x3e2f1be82dc47347:0x46b48d83df168f04","status":"stable","name":"عذيّة","type":"Coffee shop","district":"غير محدد","location":"3353 8634 Muawiyah Ibn Abi Sufyan Road, Dhahrat Al Badi'ah, Riyadh 12782","arLocation":"3353 8634 طريق معاوية ابن ابي سفيان، ظهرة البديعة، الرياض 12782","phone":null,"rate":4.4,"reviews":325,"lat":24.6052501,"lng":46.6574032,"mapUrl":null,"placeUrl":null,"photoCount":null,"claimed":null,"businessStatus":null,"dateScraped":"2024-06-26"},{"id":"0x3e2f1b17e15f815d:0x240182dd88a5d030","status":"stable","name":"كوفى عذبه","type":"Coffee shop","district":"غير محدد","location":"8648 حي، RBBD3373، 3373 معاوية بن ابي سفيان, Riyadh 12782","arLocation":null,"phone":null,"rate":3.8,"reviews":47,"lat":24.605267899999998,"lng":46.6574197,"mapUrl":null,"placeUrl":null,"photoCount":null,"claimed":null,"businessStatus":null,"dateScraped":"2024-06-26"},{"id":"0x3e2f057e5f219b7b:0xfbc5f2132240c0ed","status":"stable","name":"Nice Store","type":"Home goods store","district":"غير محدد","location":"King Fahd Rd, Siyah, Riyadh 12774","arLocation":"طريق الملك فهد، صياح، الرياض 12774","phone":"8003041113","rate":4.0,"reviews":1222,"lat":24.6052847,"lng":46.7057857,"mapUrl":null,"placeUrl":null,"photoCount":null,"claimed":null,"businessStatus":null,"dateScraped":"2024-06-26"},{"id":"0x3e2f0579bc41d3d1:0x4002880804d733bd","status":"stable","name":"سوبرماركت شركة محمد سعيد بالبيد التجارية جملة المستهلك","type":"Supermarket","district":"غير محدد","location":"12671 طريق الامير محمد بن عبدالرحمن، عتيقة، الرياض 8228","arLocation":null,"phone":"0593351577","rate":4.2,"reviews":705,"lat":24.605075499999998,"lng":46.7101942,"mapUrl":null,"placeUrl":null,"photoCount":null,"claimed":null,"businessStatus":null,"dateScraped":"2024-06-26"},{"id":"0x3e2f0506a9bc4e27:0x7c5f4f8be2f45ce5","status":"stable","name":"شهاب الوطن فرع عتيقه","type":"Supermarket","district":"غير محدد","location":"Utaiqah, Riyadh 12671","arLocation":"عتيقة، الرياض 12671","phone":null,"rate":5.0,"reviews":2,"lat":24.6053246,"lng":46.7098103,"mapUrl":null,"placeUrl":null,"photoCount":null,"claimed":null,"businessStatus":null,"dateScraped":"2024-06-26"},{"id":"0x3e2f0f7441c5902d:0xda185f3d32641d0","status":"stable","name":"تموينات الرجبة للمواد الغذائية","type":"Discount supermarket","district":"غير محدد","location":"JP4M+C7H, Islamabad Street, الامير سعود ابن عبد الرحمن الفيصل, Riyadh 12211","arLocation":"JP4M+C7H، شارع اسلام اباد، الامير سعود ابن عبد الرحمن الفيصل، الرياض 12211","phone":"0114545702","rate":4.1,"reviews":59,"lat":24.606050399999997,"lng":46.7332448,"mapUrl":null,"placeUrl":null,"photoCount":null,"claimed":null,"businessStatus":null,"dateScraped":"2024-06-26"},{"id":"0x3e2f0f5cf3ddf759:0xedaee39c4c188b7b","status":"stable","name":"McDonald's","type":"Restaurant","district":"غير محدد","location":"Al Bathaa, Rd, Riyadh 12684","arLocation":"البطحاء, Rd، الرياض 12684","phone":"8001212345","rate":4.0,"reviews":4175,"lat":24.604796999999998,"lng":46.731805,"mapUrl":null,"placeUrl":null,"photoCount":null,"claimed":null,"businessStatus":null,"dateScraped":"2024-06-26"},{"id":"0x3e2f0f5cf4a4f651:0x5ceda1375f23eec9","status":"stable","name":"Baskin Robbins","type":"Ice cream shop","district":"غير محدد","location":"JP3J+WVG, Al Bathaa, Al Mansourah, Riyadh 12684","arLocation":"JP3J+WVG، البطحاء, Al Mansourah، الرياض 12684","phone":null,"rate":3.9,"reviews":82,"lat":24.60481,"lng":46.7322178,"mapUrl":null,"placeUrl":null,"photoCount":null,"claimed":null,"businessStatus":null,"dateScraped":"2024-06-26"},{"id":"0x3e2f1b6a501da791:0x927bd984145baba5","status":"stable","name":"اسواق ومخابز زهرة الانوار","type":"Supermarket","district":"غير محدد","location":"6959،، 4617 الدمنهوري، العريجاء الوسطى، الرياض 12951, Riyadh 12211","arLocation":null,"phone":"0535458731","rate":4.0,"reviews":128,"lat":24.609591899999998,"lng":46.628207499999995,"mapUrl":null,"placeUrl":null,"photoCount":null,"claimed":null,"businessStatus":null,"dateScraped":"2024-06-26"},{"id":"0x3e2f1b1028239ca1:0x4164e5143821df5a","status":"stable","name":"تموينات ثمار السلاطين اسواق متكاملة","type":"Supermarket","district":"غير محدد","location":"قبل تقاطع عائشة، شارع الامير مساعد بن عبدالرحمن, Riyadh 12765","arLocation":null,"phone":"0537739766","rate":4.0,"reviews":81,"lat":24.611512299999998,"lng":46.6438136,"mapUrl":null,"placeUrl":null,"photoCount":null,"claimed":null,"businessStatus":null,"dateScraped":"2024-06-26"},{"id":"0x3e2f1b49c11b38f7:0xc9c6100484335da7","status":"stable","name":"تموينات زهرة التميز العريجاء","type":"Produce market","district":"غير محدد","location":"Al Amir Musaid Ibn Abdul Rahman Ibn Faisal Rd, Al Uraija Al Wusta, Riyadh 12766","arLocation":"طريق الامير مساعد بن عبدالرحمن بن فيصل، العريجاء الوسطى، الرياض 12766","phone":"0507314213","rate":3.5,"reviews":35,"lat":24.611392,"lng":46.643577099999995,"mapUrl":null,"placeUrl":null,"photoCount":null,"claimed":null,"businessStatus":null,"dateScraped":"2024-06-26"},{"id":"0x3e2f1bbc95ed71cf:0x86bdb1b6db893b0","status":"stable","name":"تموينات سلسبيل البركة للمواد الغذائية","type":"Supermarket","district":"غير محدد","location":"حي, 3398 طريق الامير مساعد بن عبدالرحمن بن فيصل، العريجاء الوسطى، 7111،","arLocation":null,"phone":"0501788464","rate":4.3,"reviews":29,"lat":24.610595699999998,"lng":46.6422485,"mapUrl":null,"placeUrl":null,"photoCount":null,"claimed":null,"businessStatus":null,"dateScraped":"2024-06-26"},{"id":"0x3e2f050010372557:0x4cbab18d654a4c46","status":"stable","name":"اسواق جوي مارت","type":"Supermarket","district":"غير محدد","location":"JM6M+9X6, Sultanah, Riyadh 12772","arLocation":"JM6M+9X6، سلطانة، الرياض 12772","phone":null,"rate":3.0,"reviews":2,"lat":24.610938299999997,"lng":46.685031699999996,"mapUrl":null,"placeUrl":null,"photoCount":null,"claimed":null,"businessStatus":null,"dateScraped":"2024-06-26"},{"id":"0x3e2f0578c7306969:0x4fdbf3442a7ae190","status":"stable","name":"شركة الفوزان هوم ماستر","type":"Home goods store","district":"غير محدد","location":"2260 جحاف، عتيقة، الرياض 12655 6515 Jihaf, 6515, Utaiqah, Riyadh 12655","arLocation":"2260 جحاف، عتيقة، الرياض 12655 6515 جحاف، 6515، عتيقة، الرياض 12655","phone":"0114133677","rate":3.8,"reviews":99,"lat":24.6093233,"lng":46.707454999999996,"mapUrl":null,"placeUrl":null,"photoCount":null,"claimed":null,"businessStatus":null,"dateScraped":"2024-06-26"},{"id":"0x3e2f0578c2fe885b:0x8e3833c9a4ad49cd","status":"stable","name":"Al-Saif Company","type":"Home goods store","district":"غير محدد","location":"مركز اتحاد السبالة, King Fahd Rd, Utaiqah, Riyadh 11564","arLocation":"مركز اتحاد السبالة، طريق الملك فهد، عتيقة، الرياض 11564","phone":"920000454","rate":4.2,"reviews":247,"lat":24.6092756,"lng":46.707510299999996,"mapUrl":null,"placeUrl":null,"photoCount":null,"claimed":null,"businessStatus":null,"dateScraped":"2024-06-26"},{"id":"0x3e2f05817dc9ff8b:0x789ff9bf03ac7044","status":"stable","name":"مخابزوحلويات الوفاء","type":"Dessert shop","district":"غير محدد","location":"JP56+XQM, ممر الرفادة، حي, Manfouhah Al Jadidah, Riyadh 12653","arLocation":"JP56+XQM, ممر الرفادة، حي, منفوحة الجديدة، الرياض 12653","phone":"0550633080","rate":4.1,"reviews":233,"lat":24.6099502,"lng":46.711906299999995,"mapUrl":null,"placeUrl":null,"photoCount":null,"claimed":null,"businessStatus":null,"dateScraped":"2024-06-26"},{"id":"0x3e2f0583e298e1c5:0xc4220f3a473f29cf","status":"stable","name":"أسواق درة الامتياز الغذائية","type":"Supermarket","district":"غير محدد","location":"JP67+397, ممر الرفادة، حي, Manfouhah Al Jadidah, Riyadh 12655","arLocation":"JP67+397, ممر الرفادة، حي, منفوحة الجديدة، الرياض 12655","phone":"0114586860","rate":3.8,"reviews":44,"lat":24.6101553,"lng":46.713428,"mapUrl":null,"placeUrl":null,"photoCount":null,"claimed":null,"businessStatus":null,"dateScraped":"2024-06-26"},{"id":"0x3e2f0f5e04acae2f:0x459e48d27ae14e67","status":"stable","name":"أسواق العصفور للمواد الغذائية","type":"Grocery store","district":"غير محدد","location":"JP4H+QG8, Manfuhah, Riyadh 12681","arLocation":"JP4H+QG8، منفوحة، الرياض 12681","phone":"0505426196","rate":5.0,"reviews":5,"lat":24.6069051,"lng":46.728832499999996,"mapUrl":null,"placeUrl":null,"photoCount":null,"claimed":null,"businessStatus":null,"dateScraped":"2024-06-26"},{"id":"0x3e2f0f5774ca898d:0x41ab8adcd08ea314","status":"stable","name":"Salem Sweets","type":"Discount supermarket","district":"غير محدد","location":"Al Farazdaq St, Al Mansourah, Riyadh 12682","arLocation":"شارع الفرزدق، المنصورة، الرياض 12682","phone":"0569311013","rate":4.3,"reviews":1427,"lat":24.6106725,"lng":46.7407366,"mapUrl":null,"placeUrl":null,"photoCount":null,"claimed":null,"businessStatus":null,"dateScraped":"2024-06-26"},{"id":"0x3e2f08b2a12a9def:0x42ced179540bbb48","status":"stable","name":"Grocery Andonossia","type":"Asian grocery store","district":"غير محدد","location":"3137 Muhammad Ibn Shuail, Al Mansourah, Riyadh 12693","arLocation":"3137 محمد بن شعيل، المنصورة، الرياض 12693","phone":null,"rate":3.9,"reviews":202,"lat":24.608455799999998,"lng":46.748744099999996,"mapUrl":null,"placeUrl":null,"photoCount":null,"claimed":null,"businessStatus":null,"dateScraped":"2024-06-26"},{"id":"0x3e2f097d943f6695:0x50b773817aa015fd","status":"stable","name":"Al Mansouri Icecream Wholsale","type":"Ice cream shop","district":"غير محدد","location":"JQ63+7F8, Muhammad Ibn Shuail, Al Mansourah, Riyadh 12694","arLocation":"JQ63+7F8، محمد بن شعيل، المنصورة، الرياض 12694","phone":"0114467997","rate":4.4,"reviews":27,"lat":24.6106554,"lng":46.753695099999995,"mapUrl":null,"placeUrl":null,"photoCount":null,"claimed":null,"businessStatus":null,"dateScraped":"2024-06-26"},{"id":"0x3e2f09034775d647:0xf403526af4854e05","status":"stable","name":"ضبط شاي","type":"Tea house","district":"غير محدد","location":"8437 Southern Ring Branch Rd, Al Aziziyah, 2697, Riyadh 14511","arLocation":"8437 الطريق الدائري الجنوبي الفرعي، العزيزية, 2697، الرياض 14511","phone":"0597716287","rate":4.3,"reviews":357,"lat":24.6093728,"lng":46.7639188,"mapUrl":null,"placeUrl":null,"photoCount":null,"claimed":null,"businessStatus":null,"dateScraped":"2024-06-26"},{"id":"0x3e2f08bb81d0b74d:0xca54fa6d40a50d14","status":"stable","name":"أسواق زاد","type":"Grocery store","district":"غير محدد","location":"JQ66+CVM, Al Mansourah, Riyadh 12694","arLocation":"JQ66+CVM، المنصورة، الرياض 12694","phone":null,"rate":4.2,"reviews":54,"lat":24.611093999999998,"lng":46.7621815,"mapUrl":null,"placeUrl":null,"photoCount":null,"claimed":null,"businessStatus":null,"dateScraped":"2024-06-26"},{"id":"0x3e2f21840624c443:0x4d950ee91a5f9a81","status":"stable","name":"تموينات زاد وملح للمواد الغذائية","type":"Supermarket","district":"غير محدد","location":"Yanbouh, Dhahrat Laban, Riyadh 13787","arLocation":"شارع ينبع، ظهرة لبن، الرياض 13787","phone":"0508379373","rate":4.2,"reviews":51,"lat":24.614619899999997,"lng":46.512259,"mapUrl":null,"placeUrl":null,"photoCount":null,"claimed":null,"businessStatus":null,"dateScraped":"2024-06-26"},{"id":"0x3e2f05361a1ac6df:0xc99f32e11ac9d5d7","status":"stable","name":"تموينات ومخابز بركات الديرة","type":"Supermarket","district":"غير محدد","location":"Al Badi'ah، JM8G+53V، سماحة الشيخ عبدالعزيز بن باز، حي البديعة, Riyadh 12755","arLocation":"البديعة، JM8G+53V، سماحة الشيخ عبدالعزيز بن باز، حي البديعة، الرياض 12755","phone":"0593925826","rate":4.1,"reviews":430,"lat":24.615444,"lng":46.675156699999995,"mapUrl":null,"placeUrl":null,"photoCount":null,"claimed":null,"businessStatus":null,"dateScraped":"2024-06-26"},{"id":"0x3e2f05771a8905c5:0x83faf5b73e17170","status":"stable","name":"معرض العالمي للاثاث اسواق بن دايل","type":"Furniture store","district":"غير محدد","location":"5621 Khalid Ibn Uday, 7820, Al Jaradiyah, Riyadh 12771","arLocation":"5621 خالد بن عدي، 7820، الجرادية، الرياض 12771","phone":"0543749827","rate":3.7,"reviews":209,"lat":24.6147135,"lng":46.7059484,"mapUrl":null,"placeUrl":null,"photoCount":null,"claimed":null,"businessStatus":null,"dateScraped":"2024-06-26"},{"id":"0x3e2f0582b09dccd3:0x1dbff71d0d29749b","status":"stable","name":"تموينات نورة بنت عبدالله بن عسل القحطاني للمواد الغذائية","type":"Supermarket","district":"غير محدد","location":"JP75+8XH, شارع عبدالله بن عبدالرحمن،, Manfuhah, Riyadh 12655","arLocation":"JP75+8XH, شارع عبدالله بن عبدالرحمن،, منفوحة، الرياض 12655","phone":"0114590271","rate":5.0,"reviews":3,"lat":24.613307799999998,"lng":46.7099853,"mapUrl":null,"placeUrl":null,"photoCount":null,"claimed":null,"businessStatus":null,"dateScraped":"2024-06-26"},{"id":"0x3e2f05b7c27b381f:0x457d8447e85e170e","status":"stable","name":"كويك ماركت ( شريوف)","type":"Convenience store","district":"غير محدد","location":"RCMA2149، 7979 طريق الأمير محمد بن عبدالرحمن الفرعي، حي المنصورة، 2149, Riyadh 12691","arLocation":null,"phone":null,"rate":3.9,"reviews":10,"lat":24.6166757,"lng":46.7390263,"mapUrl":null,"placeUrl":null,"photoCount":null,"claimed":null,"businessStatus":null,"dateScraped":"2024-06-26"},{"id":"0x3e2f0ff93c30e275:0xd71fb50930ae1e41","status":"stable","name":"حلويات مني كيك المنصوره","type":"Candy store","district":"غير محدد","location":"حي, 7944 معن بن زائدة، المنصورة، الرياض 12691 2827،","arLocation":null,"phone":"0530553563","rate":4.6,"reviews":19,"lat":24.616271299999998,"lng":46.7458594,"mapUrl":null,"placeUrl":null,"photoCount":null,"claimed":null,"businessStatus":null,"dateScraped":"2024-06-26"},{"id":"0x3e2f0f5504dce569:0xad48db231632217a","status":"stable","name":"Panda Supermarket","type":"Supermarket","district":"غير محدد","location":"JP8W+39, Maan Bin Zaida St, Al Mansourah, Riyadh 12691","arLocation":"JP8W+39، شارع معن بن زائدة، المنصورة، الرياض 12691","phone":"920027707","rate":4.1,"reviews":2578,"lat":24.615219,"lng":46.745971999999995,"mapUrl":null,"placeUrl":null,"photoCount":null,"claimed":null,"businessStatus":null,"dateScraped":"2024-06-26"},{"id":"0x3e2f0f68aed22323:0x8c0596bd4e0013fe","status":"stable","name":"أسواق ومخابز روضة الياسمين -2","type":"Supermarket","district":"غير محدد","location":"معن بن زائدة, شارع معن بن زائدة, Riyadh","arLocation":null,"phone":"0536881668","rate":4.3,"reviews":12,"lat":24.6152496,"lng":46.7470669,"mapUrl":null,"placeUrl":null,"photoCount":null,"claimed":null,"businessStatus":null,"dateScraped":"2024-06-26"},{"id":"0x3e2f09a375af5923:0x2c4355baf79206b4","status":"stable","name":"PASSO MINI MARKET","type":"Supermarket","district":"غير محدد","location":"JQ73+6J7, JQ73+6J7،, المنصورة،،, Riyadh 12692،","arLocation":null,"phone":null,"rate":3.3,"reviews":4,"lat":24.6130337,"lng":46.7540601,"mapUrl":null,"placeUrl":null,"photoCount":null,"claimed":null,"businessStatus":null,"dateScraped":"2024-06-26"},{"id":"0x3e2f09231243b1c3:0xc0c87e151f9d8939","status":"stable","name":"Gawar Alromansiyah","type":"Bakery","district":"غير محدد","location":"7678، 3832-3630 الامير مشاري بن سعود بن عبدالعزيز، المنصورة، الرياض 12692، 12692","arLocation":null,"phone":"0505135324","rate":4.5,"reviews":46,"lat":24.6127778,"lng":46.7537594,"mapUrl":null,"placeUrl":null,"photoCount":null,"claimed":null,"businessStatus":null,"dateScraped":"2024-06-26"},{"id":"0x3e2f0921b176618f:0xa6a5a739ad3aa856","status":"stable","name":"تموينات ابو مدهش","type":"Supermarket","district":"غير محدد","location":"JQ73+6J7, Al Mansourah, Riyadh 12692","arLocation":"JQ73+6J7، المنصورة، الرياض 12692","phone":"0502324024","rate":2.7,"reviews":3,"lat":24.613036899999997,"lng":46.7540416,"mapUrl":null,"placeUrl":null,"photoCount":null,"claimed":null,"businessStatus":null,"dateScraped":"2024-06-26"},{"id":"0x3e2f1f000b598d8b:0x480de63454b333a8","status":"stable","name":"أسواق ومخابز درة الريف","type":"Supermarket","district":"غير محدد","location":"6569 Al Shafa 2789 الشفا،, Riyadh 13784","arLocation":null,"phone":"0535367547","rate":3.7,"reviews":108,"lat":24.6212721,"lng":46.533231799999996,"mapUrl":null,"placeUrl":null,"photoCount":null,"claimed":null,"businessStatus":null,"dateScraped":"2024-06-26"},{"id":"0x3e2f05925204eb59:0x600f43108fa3cd14","status":"stable","name":"تموينات","type":"Supermarket","district":"غير محدد","location":"3121 Al Murshid, 3121, 6622, Riyadh 12748","arLocation":"3121 ال مرشد، 3121, 6622, الرياض 12748","phone":null,"rate":3.9,"reviews":8,"lat":24.6185112,"lng":46.6859766,"mapUrl":null,"placeUrl":null,"photoCount":null,"claimed":null,"businessStatus":null,"dateScraped":"2024-06-26"},{"id":"0x3e2f0573963e230d:0xe554956c6a179090","status":"stable","name":"Al Maha Groceries","type":"Supermarket","district":"غير محدد","location":"JP93+47W, Assir St, Al-Shemaysi, Riyadh 12771","arLocation":"JP93+47W، شارع عسير، الشميسي، الرياض 12771","phone":"0112868117","rate":3.8,"reviews":45,"lat":24.6178626,"lng":46.7032044,"mapUrl":null,"placeUrl":null,"photoCount":null,"claimed":null,"businessStatus":null,"dateScraped":"2024-06-26"},{"id":"0x3e2f05ea23aab29d:0xb4e4a4bb55f8ef8b","status":"stable","name":"تموينات السليم","type":"Produce market","district":"غير محدد","location":"JP99+PRV, Manfouhah Al Jadidah, Riyadh 12654","arLocation":"JP99+PRV، منفوحة الجديدة، الرياض 12654","phone":null,"rate":5.0,"reviews":1,"lat":24.619368899999998,"lng":46.719533,"mapUrl":null,"placeUrl":null,"photoCount":null,"claimed":null,"businessStatus":null,"dateScraped":"2024-06-26"},{"id":"0x3e2f0590692a1157:0xd06a8258af91d130","status":"stable","name":"مجموعة بقالات مخفضة","type":"Grocery store","district":"غير محدد","location":"JP99+JWV, Manfouhah Al Jadidah, Riyadh 12654","arLocation":"JP99+JWV، منفوحة الجديدة، الرياض 12654","phone":null,"rate":3.7,"reviews":118,"lat":24.619120199999998,"lng":46.7197871,"mapUrl":null,"placeUrl":null,"photoCount":null,"claimed":null,"businessStatus":null,"dateScraped":"2024-06-26"},{"id":"0x3e2f0590648755cb:0x6feef0008a2e3a6b","status":"stable","name":"Manfouha Wholesale Market","type":"Grocery store","district":"غير محدد","location":"7645 Al Cheikh Muhammad Ibn Ibrahim, Manfouhah Al Jadidah, Riyadh 12654","arLocation":"7645 الشيخ محمد بن ابراهيم، منفوحة الجديدة، الرياض 12654","phone":null,"rate":4.0,"reviews":745,"lat":24.6193888,"lng":46.7195967,"mapUrl":null,"placeUrl":null,"photoCount":null,"claimed":null,"businessStatus":null,"dateScraped":"2024-06-26"},{"id":"0x3e2f058dc0b1e941:0x19beb35e347e8350","status":"stable","name":"Othaim Markets","type":"Supermarket","district":"غير محدد","location":"Halimah Al Saadiah, Manfouhah Al Jadidah, Riyadh 12656","arLocation":"شارع حليمة السعدية، منفوحة الجديدة، الرياض 12656","phone":"920000702","rate":4.1,"reviews":2161,"lat":24.617923599999997,"lng":46.724785999999995,"mapUrl":null,"placeUrl":null,"photoCount":null,"claimed":null,"businessStatus":null,"dateScraped":"2024-06-26"},{"id":"0x3e2f05901973d5db:0x32e612e50af15b1e","status":"stable","name":"سوق الخضار بالمنفوحه","type":"Grocery store","district":"غير محدد","location":"7461 Al Cheikh Abd Al Latif Ibn Ibrahim, Manfouhah Al Jadidah, Riyadh 12654","arLocation":"7461 شارع الشيخ عبداللطيف بن إبراهيم، منفوحة الجديدة، الرياض 12654","phone":null,"rate":3.9,"reviews":2714,"lat":24.6179177,"lng":46.719882,"mapUrl":null,"placeUrl":null,"photoCount":null,"claimed":null,"businessStatus":null,"dateScraped":"2024-06-26"},{"id":"0x3e2f05fd39c87ee9:0x737f4d41709b426d","status":"stable","name":"بقالة","type":"Supermarket","district":"غير محدد","location":"7182 Ammar Bin Yasir St, Ghubairah, 4051, Riyadh 12664","arLocation":"7182 عمار بن ياسر -رضي الله عنهما-، غبيرة, 4051، الرياض 12664","phone":"0551424019","rate":5.0,"reviews":2,"lat":24.621612,"lng":46.7374885,"mapUrl":null,"placeUrl":null,"photoCount":null,"claimed":null,"businessStatus":null,"dateScraped":"2024-06-26"},{"id":"0x3e2f05ff104415c5:0x4e8b39ac2de87ab4","status":"stable","name":"مخابز و حلويات التسهيلات","type":"Bakery","district":"غير محدد","location":"معن بن زائدة, Al Mansourah, Riyadh 12691","arLocation":"معن بن زائدة، المنصورة، الرياض 12691","phone":"0114461070","rate":3.8,"reviews":95,"lat":24.6185823,"lng":46.744677599999996,"mapUrl":null,"placeUrl":null,"photoCount":null,"claimed":null,"businessStatus":null,"dateScraped":"2024-06-26"},{"id":"0x3e2f0600452b5683:0xb60d85edae3d89f1","status":"stable","name":"Baskin Robbins","type":"Ice cream shop","district":"غير محدد","location":"JPCX+4R8, Al Mansourah, Riyadh 12692","arLocation":"JPCX+4R8، المنصورة، الرياض 12692","phone":"0138343410","rate":4.1,"reviews":477,"lat":24.620289699999997,"lng":46.749566699999995,"mapUrl":null,"placeUrl":null,"photoCount":null,"claimed":null,"businessStatus":null,"dateScraped":"2024-06-26"},{"id":"0x3e2f06005a8da80d:0x71865cd14e0ecac7","status":"stable","name":"Jareer Sweets - Kabbani","type":"Dessert shop","district":"غير محدد","location":"حي, Al Kharj Rd, Al Mansourah, Riyadh 12692","arLocation":"حي، طريق الخرج، المنصورة، الرياض 12692","phone":"0114463085","rate":4.1,"reviews":330,"lat":24.6203678,"lng":46.749413399999995,"mapUrl":null,"placeUrl":null,"photoCount":null,"claimed":null,"businessStatus":null,"dateScraped":"2024-06-26"},{"id":"0x3e2f08a0f1508f79:0xc9ebed2d5a7da6ea","status":"stable","name":"الصفصاف قطايف كل عام وانتم بخير (ساري)","type":"Supermarket","district":"غير محدد","location":"حي, Youssef Al Chafi, Al Khalidiyyah, Riyadh 12875","arLocation":"حي، يوسف الشافعي، الخالدية، الرياض 12875","phone":"0530300992","rate":4.0,"reviews":1045,"lat":24.621632899999998,"lng":46.7639146,"mapUrl":null,"placeUrl":null,"photoCount":null,"claimed":null,"businessStatus":null,"dateScraped":"2024-06-26"},{"id":"0x3e2f08a0e88a9909:0x69ced70e38372937","status":"stable","name":"مؤسسة تلال فلسطين","type":"Grocery store","district":"غير محدد","location":"JQC7+JFW, Youssef Al Chafi, Al Faisaliyyah, Riyadh 12875","arLocation":"JQC7+JFW، يوسف الشافعي، الفيصلية، الرياض 12875","phone":null,"rate":4.1,"reviews":88,"lat":24.621601,"lng":46.7637023,"mapUrl":null,"placeUrl":null,"photoCount":null,"claimed":null,"businessStatus":null,"dateScraped":"2024-06-26"},{"id":"0x3e2fa78d9cc352dd:0x22af334ff60bdbb4","status":"stable","name":"Lucas Arabia - لوكاس ارابيا","type":"Coffee shop","district":"غير محدد","location":"As Sulay, حي, 6225 طريق هارون الرشيد، السلي، الرياض 14322 2886،،, Riyadh 14322","arLocation":"السلي، حي, 6225 طريق هارون الرشيد، السلي، الرياض 14322 2886،،, الرياض 14322","phone":"0506383187","rate":5.0,"reviews":2,"lat":24.61865,"lng":46.8342861,"mapUrl":null,"placeUrl":null,"photoCount":null,"claimed":null,"businessStatus":null,"dateScraped":"2024-06-26"},{"id":"0x3e2f1f34188e458b:0xccedd6dc4b4cfed9","status":"stable","name":"المتاجر الرابحة","type":"Supermarket","district":"غير محدد","location":"3385 Asir St, 6780, Dhahrat Laban, Riyadh 13784","arLocation":"3385 شارع عسير، 6780، ظهرة لبن، الرياض 13784","phone":"0534927770","rate":3.8,"reviews":674,"lat":24.6239137,"lng":46.5390535,"mapUrl":null,"placeUrl":null,"photoCount":null,"claimed":null,"businessStatus":null,"dateScraped":"2024-06-26"},{"id":"0x3e2f192c095cbcbd:0x40ffc7d4bc3502fa","status":"stable","name":"Othaim Markets (City)","type":"Supermarket","district":"غير محدد","location":"شارع الشفا, تقاطع, شارع نجران, Riyadh","arLocation":null,"phone":"920000702","rate":3.9,"reviews":601,"lat":24.623019,"lng":46.559836999999995,"mapUrl":null,"placeUrl":null,"photoCount":null,"claimed":null,"businessStatus":null,"dateScraped":"2024-06-26"},{"id":"0x3e2f05c3e5f171cb:0x8ec78f14481ea384","status":"stable","name":"McDonald's","type":"Restaurant","district":"غير محدد","location":"3241 Samahat Ash Shaikh Abdulaziz Ibn Baz St, Al Badi'ah, Riyadh 12747","arLocation":"3241 شارع سماحة الشيخ عبدالعزيز بن باز، البديعة، الرياض 12747","phone":"8001212345","rate":3.3,"reviews":190,"lat":24.624163,"lng":46.686824,"mapUrl":null,"placeUrl":null,"photoCount":null,"claimed":null,"businessStatus":null,"dateScraped":"2024-06-26"},{"id":"0x3e2f0573c3f67951:0xaad42a6d937dcaf1","status":"stable","name":"Kudu - Al Badiah","type":"Restaurant","district":"غير محدد","location":"Al Badi'ah, Samahat Al Sheikh Abdulaziz Ibn Baz St, Opposite King Saud Medical City, Riyadh","arLocation":null,"phone":"920006999","rate":3.9,"reviews":478,"lat":24.6254845,"lng":46.689127199999994,"mapUrl":null,"placeUrl":null,"photoCount":null,"claimed":null,"businessStatus":null,"dateScraped":"2024-06-26"},{"id":"0x3e2f05fd18c4ec2b:0x8669c7dca1ef3bea","status":"stable","name":"تموينات للمواد الغذائية","type":"Supermarket","district":"غير محدد","location":"JPGW+486, الاصمعي، حي, Al Khalidiyyah, Riyadh 12873","arLocation":"JPGW+486, الاصمعي، حي, الخالدية، الرياض 12873","phone":"0537675733","rate":3.9,"reviews":17,"lat":24.6252757,"lng":46.745768299999995,"mapUrl":null,"placeUrl":null,"photoCount":null,"claimed":null,"businessStatus":null,"dateScraped":"2024-06-26"},{"id":"0x3e2f060327bc3cc7:0x3be1c424b27bcc43","status":"stable","name":"المعيذر لتجهيز المخابز و محلات الشوكولا","type":"Dessert shop","district":"غير محدد","location":"4061 طريق الأمير محمد بن عبدالرحمن الفرعي, Al Khalidiyyah, Riyadh 12875","arLocation":"4061 طريق الأمير محمد بن عبدالرحمن الفرعي، الخالدية، الرياض 12875","phone":"0503429055","rate":4.1,"reviews":424,"lat":24.623701,"lng":46.7572204,"mapUrl":null,"placeUrl":null,"photoCount":null,"claimed":null,"businessStatus":null,"dateScraped":"2024-06-26"},{"id":"0x3e2f061db72f009d:0xbbc576a69c44ddb4","status":"stable","name":"اسواق اللحيدان","type":"Bakery","district":"غير محدد","location":"الخالدية،","arLocation":null,"phone":"0509138069","rate":4.0,"reviews":82,"lat":24.624327299999997,"lng":46.760891099999995,"mapUrl":null,"placeUrl":null,"photoCount":null,"claimed":null,"businessStatus":null,"dateScraped":"2024-06-26"},{"id":"0x3e2f061d1e8fe175:0x4c186b96d864d9b9","status":"stable","name":"روائع السلام للمواد الغذائية","type":"Supermarket","district":"غير محدد","location":"4304 Al Aseel, Al Khalidiyyah, Riyadh 12875","arLocation":"4304 الاصيل، الخالدية، الرياض 12875","phone":"0557439293","rate":4.4,"reviews":115,"lat":24.6239991,"lng":46.758989,"mapUrl":null,"placeUrl":null,"photoCount":null,"claimed":null,"businessStatus":null,"dateScraped":"2024-06-26"},{"id":"0x3e2f0922ea6ae005:0x7c14d670f7cdc414","status":"stable","name":"تموينات عبدالله ناصر الحاتم","type":"Supermarket","district":"غير محدد","location":"8075 عبدالله الخالدي، المناخ، الرياض 14312 3430","arLocation":null,"phone":null,"rate":4.0,"reviews":7,"lat":24.6251572,"lng":46.797980599999995,"mapUrl":null,"placeUrl":null,"photoCount":null,"claimed":null,"businessStatus":null,"dateScraped":"2024-06-26"},{"id":"0x3e2fa79f5de1bd25:0x3fbcf0b93e89849c","status":"stable","name":"مستودع باسلات","type":"Coffee machine supplier","district":"غير محدد","location":"As Sulay، شارع الصفا من هارون الرشيد منطقة, Riyadh 14325","arLocation":"السلي، شارع الصفا من هارون الرشيد منطقة، الرياض 14325","phone":"0555810322","rate":4.0,"reviews":22,"lat":24.6246209,"lng":46.8439483,"mapUrl":null,"placeUrl":null,"photoCount":null,"claimed":null,"businessStatus":null,"dateScraped":"2024-06-26"},{"id":"0x3e2f1f4e65e4c487:0xe678647cb37dc74f","status":"stable","name":"تموينات العقد الاحمر","type":"Supermarket","district":"غير محدد","location":"4501 شارع عسير، 7575، ظهرة لبن، الرياض 13784،","arLocation":null,"phone":"0556364452","rate":4.0,"reviews":4,"lat":24.630500299999998,"lng":46.550608499999996,"mapUrl":null,"placeUrl":null,"photoCount":null,"claimed":null,"businessStatus":null,"dateScraped":"2024-06-26"},{"id":"0x3e2f1f260d931df3:0x440e427e821f79a3","status":"stable","name":"Qasr Alawani","type":"Kitchen supply store","district":"غير محدد","location":"Dhahrat Laban، شارع الشفا، حي, Riyadh 13781","arLocation":"ظهرة لبن، شارع الشفا، حي، الرياض 13781","phone":"920005296","rate":3.5,"reviews":203,"lat":24.6298364,"lng":46.5619495,"mapUrl":null,"placeUrl":null,"photoCount":null,"claimed":null,"businessStatus":null,"dateScraped":"2024-06-26"},{"id":"0x3e2f1ecd431feaf1:0x2ea80d75132326b5","status":"stable","name":"Alrajabh Supermarket","type":"Grocery store","district":"غير محدد","location":"7322 4083 Taiba St, Dhahrat Laban, Riyadh 13781","arLocation":"7322 4083 شارع طيبة، ظهرة لبن، الرياض 13781","phone":"0550971603","rate":3.9,"reviews":199,"lat":24.6296835,"lng":46.5649946,"mapUrl":null,"placeUrl":null,"photoCount":null,"claimed":null,"businessStatus":null,"dateScraped":"2024-06-26"},{"id":"0x3e2f1bbdd337d80d:0xae85a69ab3e009ce","status":"stable","name":"باسكن روبنز","type":"Ice cream shop","district":"غير محدد","location":"طريق الأمير أحمد بن عبدالعزيز، 3352 طريق الأمير أحمد بن عبدالعزيز ، هجرة لبن، الرياض 12936 6084،، الرياض 12936 6084، الرياض 12933،","arLocation":null,"phone":null,"rate":4.1,"reviews":143,"lat":24.6301538,"lng":46.6005817,"mapUrl":null,"placeUrl":null,"photoCount":null,"claimed":null,"businessStatus":null,"dateScraped":"2024-06-26"},{"id":"0x3e2f19acb20a9427:0x5880314f69b8ec7e","status":"stable","name":"متجر سكر وحلاوة للحلويات وللمواد الغذايه المخفضه","type":"Supermarket","district":"غير محدد","location":"JHG9+R49، شارع طيبة،, Dhahrat Laban, Riyadh 13781","arLocation":"JHG9+R49، شارع طيبة،، ظهرة لبن، الرياض 13781","phone":"0558177411","rate":4.1,"reviews":18,"lat":24.6270396,"lng":46.5678722,"mapUrl":null,"placeUrl":null,"photoCount":null,"claimed":null,"businessStatus":null,"dateScraped":"2024-06-26"},{"id":"0x3e2f050835f37743:0x6673d90fef409ff2","status":"stable","name":"بوابة العود","type":"Perfume store","district":"غير محدد","location":"ش الأمام تركي, Ad Dirah, Riyadh 12634","arLocation":"ش الأمام تركي، الديرة، الرياض 12634","phone":null,"rate":4.3,"reviews":1982,"lat":24.6298401,"lng":46.707724999999996,"mapUrl":null,"placeUrl":null,"photoCount":null,"claimed":null,"businessStatus":null,"dateScraped":"2024-06-26"},{"id":"0x3e2f056775b6e101:0xb180ec8c493cb67","status":"stable","name":"Maliki druggist","type":"Spice store","district":"غير محدد","location":"2821 Al Muqaybirah St, Ad Dirah, 6487, Riyadh 12634","arLocation":"2821 شارع المقيبرة، الديرة, 6487، الرياض 12634","phone":"0532519276","rate":3.7,"reviews":10,"lat":24.6279225,"lng":46.7097151,"mapUrl":null,"placeUrl":null,"photoCount":null,"claimed":null,"businessStatus":null,"dateScraped":"2024-06-26"},{"id":"0x3e2f0609cad76f9d:0xb0011081186b1ee4","status":"stable","name":"Azhar Alkhair Restaurant","type":"Breakfast restaurant","district":"غير محدد","location":"7936 Al Anwar, Al Khalidiyyah, Riyadh 12873","arLocation":"7936 الانوار، الخالدية، الرياض 12873","phone":"0114460202","rate":4.0,"reviews":1428,"lat":24.630106899999998,"lng":46.748897299999996,"mapUrl":null,"placeUrl":null,"photoCount":null,"claimed":null,"businessStatus":null,"dateScraped":"2024-06-26"},{"id":"0x3e2f0730002fb751:0xd7a8daf485ae6038","status":"stable","name":"A2Z DUBAI HYPERMARKET, KHALIDIYYAH","type":"Hypermarket","district":"غير محدد","location":"Al Anwar, Al Khalidiyyah, Riyadh 12874","arLocation":"الانوار، الخالدية، الرياض 12874","phone":"0573075454","rate":4.4,"reviews":9,"lat":24.6281383,"lng":46.7493233,"mapUrl":null,"placeUrl":null,"photoCount":null,"claimed":null,"businessStatus":null,"dateScraped":"2024-06-26"},{"id":"0x3e2f1f9a7327f901:0xf00b335dbe5c24a4","status":"stable","name":"حلويات الديم (حي لبن )","type":"Dessert shop","district":"غير محدد","location":"Asir St, حي لبن، Riyadh 13782","arLocation":"شارع عسير، حي لبن، الرياض 13782","phone":"0557743119","rate":4.5,"reviews":24,"lat":24.6341695,"lng":46.5564901,"mapUrl":null,"placeUrl":null,"photoCount":null,"claimed":null,"businessStatus":null,"dateScraped":"2024-06-26"},{"id":"0x3e2f1f80cb45724d:0x40cc7c91ff365058","status":"stable","name":"Cinnabon سينابون","type":"Bakery","district":"غير محدد","location":"4146 7738 Nahawand, Dhahrat Laban, Riyadh 13782","arLocation":"4146 7738 Nahawand, ظهرة لبن، الرياض 13782","phone":null,"rate":2.8,"reviews":220,"lat":24.6332432,"lng":46.565024,"mapUrl":null,"placeUrl":null,"photoCount":null,"claimed":null,"businessStatus":null,"dateScraped":"2024-06-26"},{"id":"0x3e2f1f6743f99fd9:0xa4da6f9df82ddc01","status":"stable","name":"Saadeddin pastry","type":"Candy store","district":"غير محدد","location":"4272 الشفا، ضاحية لبن، الرياض 13782","arLocation":null,"phone":"920017070","rate":3.9,"reviews":710,"lat":24.6335961,"lng":46.5667517,"mapUrl":null,"placeUrl":null,"photoCount":null,"claimed":null,"businessStatus":null,"dateScraped":"2024-06-26"},{"id":"0x3e2f1ecea8fad035:0x2b6231f75f17872f","status":"stable","name":"Almanea","type":"Appliance store","district":"غير محدد","location":"عنابة, Dhahrat Laban, Riyadh 13782","arLocation":"عنابة، ظهرة لبن، الرياض 13782","phone":"920008171","rate":3.6,"reviews":1071,"lat":24.634930999999998,"lng":46.568816,"mapUrl":null,"placeUrl":null,"photoCount":null,"claimed":null,"businessStatus":null,"dateScraped":"2024-06-26"},{"id":"0x3e2f1ffae86e4061:0x6156e76af1446d04","status":"stable","name":"Basbosah Time","type":"Candy store","district":"غير محدد","location":"4117 المرج، 7718, Riyadh 13782","arLocation":"4117 المرج، 7718، الرياض 13782","phone":"0580415689","rate":4.0,"reviews":144,"lat":24.633112699999998,"lng":46.5651547,"mapUrl":null,"placeUrl":null,"photoCount":null,"claimed":null,"businessStatus":null,"dateScraped":"2024-06-26"},{"id":"0x3e2f1b002da358f7:0xb98ce35a3a51b163","status":"stable","name":"المواسم والتموين الخضار والفواكه","type":"Supermarket","district":"غير محدد","location":"6314 Prince Ahmed Bin Abdulaziz Rd, Hijratlaban، RILA4636، 4636, Riyadh 12935","arLocation":"6314 طريق الأمير أحمد بن عبدالعزيز، هجرة لبن، RILA4636، 4636، الرياض 12935","phone":"0552516691","rate":4.2,"reviews":12,"lat":24.632144099999998,"lng":46.612978299999995,"mapUrl":null,"placeUrl":null,"photoCount":null,"claimed":null,"businessStatus":null,"dateScraped":"2024-06-26"},{"id":"0x3e2f1b65a4890d01:0xae01b70c44b26acd","status":"stable","name":"تموينات رغيد الخير فرع لبن","type":"Supermarket","district":"غير محدد","location":"JHMW+HMW, Al Khansa, Hijratlaban, Riyadh 12936","arLocation":"JHMW+HMW، الخنساء، هجرة لبن، الرياض 12936","phone":"0553135504","rate":3.2,"reviews":29,"lat":24.6339935,"lng":46.5966889,"mapUrl":null,"placeUrl":null,"photoCount":null,"claimed":null,"businessStatus":null,"dateScraped":"2024-06-26"},{"id":"0x3e2f0551a17af535:0x4ae8434338efaca9","status":"stable","name":"بيض عيون BID EUYUN","type":"Breakfast restaurant","district":"غير محدد","location":"Satam Bin Abdulaziz, Ulaishah, Riyadh 12743","arLocation":"Satam Bin Abdulaziz, عليشة، الرياض 12743","phone":"0507197794","rate":4.3,"reviews":476,"lat":24.631464599999997,"lng":46.6761433,"mapUrl":null,"placeUrl":null,"photoCount":null,"claimed":null,"businessStatus":null,"dateScraped":"2024-06-26"},{"id":"0x3e2f04d6a7638f59:0x9247689b2584853","status":"stable","name":"AlKhafeef","type":"Restaurant","district":"غير محدد","location":"Prince Sattam Ibn Abd Al Aziz, Al Fakhiriyyah, Riyadh 12737","arLocation":"الامير سطام بن عبدالعزيز، الفاخرية، الرياض 12737","phone":"0114404435","rate":4.0,"reviews":278,"lat":24.6341817,"lng":46.6754016,"mapUrl":null,"placeUrl":null,"photoCount":null,"claimed":null,"businessStatus":null,"dateScraped":"2024-06-26"},